"","Schedule K Code","Foreign Port Name","Country Code","Country Name","Update","Latitude","Longitude","Official Port Name/Alias"
"1",1520,"Hamilton, ONT","1220","Canada",NA,43.25,-79.85,"Official"
"2",1527,"Clarkson, ONT","1220","Canada",NA,43.5,-79.6,"Official"
"3",1535,"Toronto, ONT","1220","Canada",NA,43.61667,-79.38333,"Official"
"4",1652,"Picton, ONT","1220","Canada",NA,44.01667,-77.13333,"Official"
"5",1653,"Bath, ONT","1220","Canada",NA,44.18333,-76.76667,"Official"
"6",1700,"Prescott, ONT","1220","Canada",NA,44.7,-75.51667,"Official"
"7",1822,"Montreal, QUE","1220","Canada",NA,45.51667,-73.55,"Official"
"8",2641,"Port Colborne, ONT","1220","Canada",NA,42.88333,-79.25,"Official"
"9",2645,"Welland, ONT","1220","Canada",NA,43,-79.25,"Official"
"10",2649,"Thorold, ONT","1220","Canada",NA,43.08333,-79.16667,"Official"
"11",3512,"Windsor, ONT","1220","Canada",NA,42.32464,-82.97231,"Official"
"12",5512,"Sombra, ONT","1220","Canada",NA,42.71667,-82.48333,"Official"
"13",5520,"Sarnia, ONT","1220","Canada",NA,42.98333,-82.41667,"Official"
"14",6533,"Goderich, ONT","1220","Canada",NA,43.75,-81.73333,"Official"
"15",6645,"Nanticoke, ONT","1220","Canada",NA,42.784,-80.159,"Official"
"16",6767,"Spragge, ONT","1220","Canada",NA,46.2,-82.656,"Official"
"17",6768,"Owen Sound, ONT","1220","Canada",NA,44.58333,-80.93333,"Official"
"18",8525,"Sault Ste. Marie, ONT","1220","Canada",NA,46.51667,-84.35,"Official"
"19",9000,"All Other Canada Great Lakes Region Ports","1220","Canada",NA,47.654915,-85.288378,"Official"
"20",9662,"Thunder Bay, ONT","1220","Canada",NA,48.425,-89.225,"Official"
"21",9665,"Bowmanville, ONT","1220","Canada",NA,43.91667,-78.71667,"Official"
"22",9667,"Whitefish River, ONT","1220","Canada",NA,48.287753,-89.817084,"Official"
"23",12200,"All Other Canada Pacific Region Ports","1220","Canada",NA,51.408981,-128.996782,"Official"
"24",12229,"Chemainus, BC","1220","Canada",NA,48.93333,-123.71667,"Official"
"25",12234,"Crofton, BC","1220","Canada",NA,48.86667,-123.63333,"Official"
"26",12287,"Kitimat, BC","1220","Canada",NA,54,-128.68333,"Official"
"27",12406,"Nanaimo, BC","1220","Canada",NA,49.16667,-123.93333,"Official"
"28",12407,"Harmac, BC","1220","Canada",NA,49.13333,-123.85,"Official"
"29",12428,"Port Mellon, BC","1220","Canada",NA,49.51667,-123.48333,"Official"
"30",12442,"Prince Rupert, BC","1220","Canada",NA,54.31667,-130.33333,"Official"
"31",12478,"Stewart, BC","1220","Canada",NA,55.93333,-130,"Official"
"32",12493,"Vancouver, BC","1220","Canada",NA,49.28333,-123.11667,"Official"
"33",12494,"Victoria, BC","1220","Canada",NA,46.21667,-63.48333,"Official"
"34",13400,"All Other Canada Atlantic Region Ports","1220","Canada",NA,44.939533,-65.863144,"Official"
"35",13441,"Becancour, QUE","1220","Canada",NA,46.39286,-72.37942,"Official"
"36",13442,"Belledune, NB","1220","Canada",NA,45.9,-65.867,"Official"
"37",13470,"Tuktoyaktuk, NWT","1220","Canada",NA,69.45,-133,"Official"
"38",13481,"Comeau Bay, QUE","1220","Canada",NA,49.23333,-68.13333,"Official"
"39",13482,"Contrecoeur, QUE","1220","Canada",NA,45.88465,-73.21998,"Official"
"40",13485,"Dartmouth, NS","1220","Canada",NA,44.6667,-63.5667,"Official"
"41",13820,"Gros Cacouna, QUE","1220","Canada",NA,47.933,-69.516,"Official"
"42",13841,"Halifax, NS","1220","Canada",NA,44.65,-63.6,"Official"
"43",13849,"Port Hawkesbury, NS","1220","Canada",NA,45.61667,-61.36667,"Official"
"44",13852,"Sydney, NS","1220","Canada",NA,46.15,-60.2,"Official"
"45",14067,"Valleyfield, QUE","1220","Canada",NA,45.225,-74.0917,"Official"
"46",14069,"Port Alfred, QUE","1220","Canada",NA,48.3333,-70.8667,"Official"
"47",14073,"Port Cartier, QUE","1220","Canada",NA,50.03333,-66.78333,"Official"
"48",14094,"Quebec, QUE","1220","Canada",NA,46.81667,-71.21667,"Official"
"49",14428,"Saint John, NB","1220","Canada",NA,45.267,-66.05,"Official"
"50",14444,"Seven Islands, QUE","1220","Canada",NA,50.2,-66.38333,"Official"
"51",14466,"Sorel, QUE","1220","Canada",NA,46.05,-73.11667,"Official"
"52",14470,"Summerside, PEI","1220","Canada",NA,46.4,-63.78333,"Official"
"53",14471,"Charlottetown, PEI","1220","Canada",NA,46.23333,-63.13333,"Official"
"54",14474,"Three Rivers, QUE","1220","Canada",NA,46.35,-72.55,"Official"
"55",15200,"All Other Newfoundland Ports","1220","Canada",NA,46.626166,-54.750296,"Official"
"56",15229,"Come-by-Chance, NFLD","1220","Canada",NA,47.85,-53.983,"Official"
"57",15231,"Corner Brook, NFLD","1220","Canada",NA,48.95,-57.95,"Official"
"58",15245,"Holyrood, NFLD","1220","Canada",NA,47.383,-53.133,"Official"
"59",20100,"All Other Mexico West Coast Region Ports","2010","Mexico",NA,26.19245,-110.550914,"Official"
"60",20105,"La Paz","2010","Mexico",NA,24.1667,-110.3167,"Official"
"61",20106,"Topolobampo","2010","Mexico",NA,25.6,-109.0667,"Official"
"62",20107,"Lazaro Cardenas","2010","Mexico",NA,17.9333,-102.1667,"Official"
"63",20108,"Ensenada","2010","Mexico",NA,31.8667,-116.6333,"Official"
"64",20113,"Guaymas","2010","Mexico",NA,27.9167,-110.9167,"Official"
"65",20120,"Manzanillo","2010","Mexico",NA,19.05,-104.3333,"Official"
"66",20122,"Mazatlan","2010","Mexico",NA,23.2,-106.4167,"Official"
"67",20125,"Rosarito","2010","Mexico",NA,32.3667,-117.0833,"Official"
"68",20141,"Santa Rosalia","2010","Mexico",NA,27.3333,-112.2833,"Official"
"69",20154,"Dos Bocas","2010","Mexico",NA,18.61408,-93.1645,"Official"
"70",20157,"Carmen","2010","Mexico",NA,18.6333,-91.8667,"Alias"
"71",20171,"Coatzacoalcos","2010","Mexico",NA,18.15,-94.4167,"Official"
"72",20184,"Pajaritos","2010","Mexico",NA,18.15,-94.4167,"Official"
"73",20185,"Progreso","2010","Mexico",NA,21.2833,-89.6667,"Official"
"74",20193,"Tampico","2010","Mexico",NA,22.24279,-97.82599,"Official"
"75",20195,"All Other Mexico East Coast Region Ports","2010","Mexico",NA,20.199634,-94.931766,"Official"
"76",20197,"Tuxpan","2010","Mexico",NA,20.96038,-97.4043,"Official"
"77",20199,"Veracruz","2010","Mexico",NA,19.2,-96.1333,"Official"
"78",20500,"All Other Guatemala Caribbean Region Ports","2050","Guatemala",NA,15.78,-88.65,"Official"
"79",20505,"Santo Tomas de Castilla","2050","Guatemala",NA,15.7,-88.615,"Official"
"80",20506,"Puerto Quetzal","2050","Guatemala",NA,13.923,-90.79,"Official"
"81",20513,"Quatema","2050","Guatemala",NA,15.736,-88.612,"Official"
"82",20577,"San Jose","2050","Guatemala",NA,13.913,-90.83,"Official"
"83",20599,"All Other Guatemala West Coast Region Ports","2050","Guatemala",NA,13.9,-91.25,"Official"
"84",20800,"Other Belize Ports","2080","Belize","Latitude/Longitude Update",17.124,-88.242,"Official"
"85",20800,"San Pedro","2080","Belize","Latitude/Longitude Update",17.9025,-87.974,"Alias"
"86",20801,"Belize","2080","Belize","Latitude/Longitude Update",17.475,-88.1995,"Official"
"87",21101,"Acajutla","2110","El Salvador",NA,13.57766,-89.83746,"Official"
"88",21137,"La Union","2110","El Salvador",NA,13.344,-87.838,"Official"
"89",21199,"All Other El Salvador Ports","2110","El Salvador",NA,13.25,-89.05,"Official"
"90",21199,"La Libertad","2110","El Salvador",NA,13.482,-89.3185,"Alias"
"91",21515,"La Ceiba","2150","Honduras",NA,15.76667,-86.833333,"Official"
"92",21519,"Limon","2150","Honduras",NA,9.99023,-83.03301,"Official"
"93",21527,"Puerto Castilla","2150","Honduras",NA,16.00576,-86.02316,"Official"
"94",21531,"Puerto Cortes","2150","Honduras",NA,15.82193,-87.93444,"Official"
"95",21543,"Tela","2150","Honduras",NA,15.77406,-87.47554,"Official"
"96",21551,"San Lorenzo","2150","Honduras",NA,9.78333333333333,-71.0666666666667,"Official"
"97",21951,"Corinto","2190","Nicaragua",NA,12.47314,-87.17894,"Official"
"98",22313,"Limon","2230","Costa Rica",NA,9.99023,-83.03301,"Official"
"99",22315,"Bahia de Moin","2230","Costa Rica",NA,9.95295,-83.0248,"Official"
"100",22361,"Caldera","2230","Costa Rica",NA,-27.06115,-70.82975,"Official"
"101",22501,"Almirante","2250","Panama",NA,9.28606,-82.39493,"Official"
"102",22518,"Cristobal","2250","Panama",NA,9.34702,-79.9053,"Official"
"103",22519,"Colon","2250","Panama",NA,9.35321,-79.90609,"Official"
"104",22520,"Laguna de Chiriqui","2250","Panama",NA,8.92764,-82.11179,"Official"
"105",22556,"Manzanillo","2250","Panama",NA,9.392454,-79.116667,"Official"
"106",22575,"Balboa","2250","Panama",NA,8.96015,-79.56131,"Official"
"107",22579,"Panama City","2250","Panama",NA,8.95,-79.53333,"Official"
"108",23201,"Hamilton","2320","Bermuda",NA,32.291,-64.782,"Official"
"109",23251,"St. Georges","2320","Bermuda",NA,32.375,-64.68,"Official"
"110",23299,"All Other Bermuda Ports","2320","Bermuda",NA,32.325,-64.774,"Official"
"111",23661,"Nassau, New Providence I","2360","Bahamas",NA,25.07712,-77.3337,"Official"
"112",23675,"Clifton Point","2360","Bahamas",NA,25.01203,-77.55969,"Official"
"113",23683,"Bimini Island","2360","Bahamas",NA,25.73333,-79.25,"Official"
"114",23900,"Manzanillo","2390","Cuba",NA,20.35,-77.1166666666667,"Alias"
"115",24128,"Kingston","2410","Jamaica",NA,17.9666666666667,-76.7833333333333,"Official"
"116",24145,"Montego Bay","2410","Jamaica",NA,18.49829,-77.92628,"Official"
"117",24163,"Esquivel","2410","Jamaica",NA,17.88397,-77.13342,"Official"
"118",24167,"Port Rhoades","2410","Jamaica",NA,18.46052,-77.39748,"Official"
"119",24175,"Rocky Point","2410","Jamaica",NA,17.8166666666667,-77.15,"Official"
"120",24310,"Cockburn harbor","2430","Turks and Caicos Islands",NA,21.4935,-71.537,"Official"
"121",24311,"Providenciales","2430","Turks and Caicos Islands",NA,21.3247,-71.216,"Official"
"122",24320,"Grand Turks","2430","Turks and Caicos Islands",NA,21.43,-71.1525,"Official"
"123",24399,"All Other Turks Islands Ports","2430","Turks and Caicos Islands",NA,21.415,-71.14,"Official"
"124",24400,"All Other Cayman Island Ports","2440","Cayman Isl",NA,19.55,-80.45,"Official"
"125",24410,"Georgetown","2440","Cayman Isl",NA,19.296,-81.387,"Official"
"126",24415,"Cayman Brac","2440","Cayman Isl",NA,19.55,-79.87,"Official"
"127",24513,"Cap Haitien","2450","Haiti",NA,19.75949,-72.19222,"Official"
"128",24559,"Miragoane","2450","Haiti",NA,18.44937,-73.09232,"Official"
"129",24579,"Port au Prince","2450","Haiti",NA,18.5481,-72.34286,"Official"
"130",24721,"Boca Chica","2470","Dominican Republic",NA,18.44976,-69.60925,"Official"
"131",24737,"Santo Domingo","2470","Dominican Republic",NA,18.48421,-69.88526,"Official"
"132",24741,"Rio Haina","2470","Dominican Republic",NA,18.42,-70,"Official"
"133",24743,"La Romana","2470","Dominican Republic",NA,18.41626,-68.96085,"Official"
"134",24745,"Manzanillo","2470","Dominican Republic",NA,20.35,-77.1166666666667,"Alias"
"135",24773,"Puerto Plata","2470","Dominican Republic",NA,19.79975,-70.68529,"Official"
"136",24791,"San Pedro de Macoris","2470","Dominican Republic",NA,18.4492,-69.30715,"Official"
"137",24815,"Road Town, Tortola Island","2482","British Virgin",NA,18.419,-64.609,"Official"
"138",24821,"Anguilla","2481","Anguilla",NA,18.207,-63.1,"Official"
"139",24831,"St. John's, Antigua","2484","Antigua",NA,17.1226,-61.855,"Official"
"140",24835,"Basseterre, St. Kitts","2483","St. Kitts and Nevis",NA,17.29262,-62.71574,"Official"
"141",24837,"Charlestown, Nevis Is.","2483","St. Kitts and Nevis",NA,17.12671,-62.63291,"Official"
"142",24845,"Plymouth","2485","Montserrat",NA,16.702,-62.225,"Official"
"143",24851,"Rouseau","2486","Dominica",NA,15.29258,-61.39542,"Official"
"144",24852,"Portsmouth","2486","Dominica",NA,15.564,-61.462,"Official"
"145",24853,"Woodbridge Bay","2486","Dominica",NA,15.313,-61.3925,"Official"
"146",24865,"Castries","2487","St. Lucia",NA,14.012,-60.996,"Official"
"147",24866,"Cul de Sac","2487","St. Lucia",NA,13.986,-61.0175,"Official"
"148",24867,"Vieux Fort","2487","St. Lucia",NA,13.725,-60.96,"Official"
"149",24871,"Kingstown","2488","St. Vincent",NA,13.15,-61.227,"Official"
"150",24881,"St. George","2489","Grenada",NA,12.047,-61.76,"Alias"
"151",27201,"Bridgetown","2720","Barbados",NA,13.105,-59.635,"Official"
"152",27415,"Pointe a Pierre","2740","Trinidad",NA,10.31535,-61.45966,"Official"
"153",27425,"Point Lisas","2740","Trinidad",NA,10.36271,-61.47658,"Official"
"154",27431,"Port of Spain","2740","Trinidad",NA,10.65349,-61.52652,"Official"
"155",27702,"San Nicolas Bay","2779","Aruba","Change",12.429,-69.92,"Alias"
"156",27703,"Barcadera","2779","Aruba","Latitude/Longitude Update",12.478,-70,"Official"
"157",27756,"St. Eustatius","2775","Bonaire, Sint Eustatius & Saba",NA,17.484,-63,"Alias"
"158",27772,"Bullen Bay","2777","Curacao",NA,12.187,-69.025,"Alias"
"159",28313,"Pointe a Pitre","2831","Guadeloupe",NA,16.24854,-61.53678,"Official"
"160",28351,"Fort de France","2839","Martinique",NA,14.6,-61.0666666666667,"Official"
"161",30104,"Barranquilla","3010","Colombia",NA,11.01747,-74.78978,"Official"
"162",30107,"Cartagena","3010","Colombia",NA,37.5833333333333,-0.983333333333333,"Official"
"163",30110,"Covenas","3010","Colombia",NA,9.41666666666667,-75.6833333333333,"Official"
"164",30121,"Puerto Bolivar","3010","Colombia",NA,12.21582,-71.97981,"Official"
"165",30125,"Mamonal","3010","Colombia",NA,10.30924,-75.50557,"Official"
"166",30140,"Santa Marta","3010","Colombia",NA,11.26404,-74.20116,"Official"
"167",30145,"Turbo","3010","Colombia",NA,8.07044,-76.74086,"Official"
"168",30151,"Buenaventura","3010","Colombia",NA,3.88935,-77.07757,"Official"
"169",30700,"San Lorenzo","3070","Venezuela",NA,9.78333333333333,-71.0666666666667,"Alias"
"170",30704,"Amuay Bay","3070","Venezuela",NA,11.76944,-70.237,"Official"
"171",30737,"El Palito","3070","Venezuela",NA,10.5,-68.1166666666667,"Official"
"172",30741,"Bahia Guanta","3070","Venezuela",NA,10.25134,-64.57999,"Official"
"173",30742,"Guaranao","3070","Venezuela",NA,11.66779,-70.22336,"Official"
"174",30745,"La Guaira","3070","Venezuela",NA,10.60602,-66.89154,"Official"
"175",30759,"Maracaibo","3070","Venezuela",NA,10.6333333333333,-71.6,"Official"
"176",30764,"Puerto Cabello","3070","Venezuela",NA,10.47948,-68.00932,"Official"
"177",30774,"El Guamache","3070","Venezuela",NA,10.86217,-64.0588,"Official"
"178",31200,"All Other Guyana Ports","3120","Guyana","Latitude/Longitude Update",7.03,-58.23,"Official"
"179",31201,"Georgetown","3120","Guyana","Latitude/Longitude Update",6.793,-58.174,"Official"
"180",31500,"All Other Suriname Ports","3150","Suriname","Latitude/Longitude Update",6.03,-55.614,"Official"
"181",31501,"Moengo","3150","Suriname","Latitude/Longitude Update",5.626,-54.4075,"Official"
"182",31523,"Paramaribo","3150","Suriname","Latitude/Longitude Update",5.819,-55.16,"Official"
"183",31524,"Paranam","3150","Suriname","Latitude/Longitude Update",5.614,-55.089,"Official"
"184",31700,"All Other French Guiana Ports","3170","French Guiana",NA,5.43,-52.8,"Official"
"185",33100,"San Lorenzo","3310","Ecuador",NA,9.78333333333333,-71.0666666666667,"Alias"
"186",33121,"Esmeraldas","3310","Ecuador",NA,0.98329,-79.64829,"Official"
"187",33136,"La Libertad","3310","Ecuador",NA,-2.21888,-80.90749,"Official"
"188",33151,"Manta","3310","Ecuador",NA,-0.94028,-80.72231,"Official"
"189",33159,"Puerto Bolivar","3310","Ecuador",NA,-3.26667,-80,"Official"
"190",33303,"Callao","3330","Peru",NA,-12.04927,-77.1458,"Official"
"191",33335,"Ilo","3330","Peru",NA,-17.65166,-71.34894,"Official"
"192",33337,"Iquitos","3330","Peru",NA,-3.75158,-73.18708,"Official"
"193",33340,"La Pampilla","3330","Peru",NA,-11.90835,-77.15092,"Official"
"194",33354,"Matarani","3330","Peru",NA,-17.00142,-72.10639,"Official"
"195",33355,"Mollendo","3330","Peru",NA,-17.03011,-72.02615,"Official"
"196",33363,"Paita","3330","Peru",NA,-5.08604,-81.11048,"Official"
"197",33377,"Salaverry","3330","Peru",NA,-8.22122,-78.99102,"Official"
"198",33380,"San Nicolas","3330","Peru",NA,-33.32087,-60.2264,"Official"
"199",33389,"Talara","3330","Peru",NA,-4.57577,-81.2821,"Official"
"200",33703,"Antofagasta","3370","Chile",NA,-23.64959,-70.40371,"Official"
"201",33706,"Arica","3370","Chile",NA,-18.48244,-70.32837,"Official"
"202",33708,"Caldera","3370","Chile",NA,-27.06115,-70.82975,"Official"
"203",33721,"Coquimbo","3370","Chile",NA,-29.95985,-71.33075,"Official"
"204",33735,"Guayacan","3370","Chile",NA,-29.96024,-71.3612,"Official"
"205",33739,"Huasco","3370","Chile",NA,-28.45581,-71.22812,"Official"
"206",33741,"Iquique","3370","Chile",NA,-20.20615,-70.14747,"Official"
"207",33751,"Lirquen","3370","Chile",NA,-36.69993,-72.98021,"Official"
"208",33770,"Punta Arenas","3370","Chile",NA,-53.15728,-70.90476,"Official"
"209",33775,"Quintero","3370","Chile",NA,-32.77974,-71.55068,"Official"
"210",33776,"Santiago","3370","Chile",NA,-33.5,-70.9,"Official"
"211",33779,"San Antonio","3370","Chile",NA,-33.58333,-71.633333,"Official"
"212",33780,"San Vicente","3370","Chile",NA,-36.72865,-73.12965,"Official"
"213",33781,"Talcahuano","3370","Chile",NA,-36.68026,-73.09687,"Official"
"214",33782,"Penco","3370","Chile",NA,-36.7166666666667,-73,"Official"
"215",33797,"Las Salinas","3370","Chile",NA,-33.0367,-71.6331,"Official"
"216",35107,"Angra dos Reis","3510","Brazil",NA,-23.0166666666667,-44.3166666666667,"Official"
"217",35113,"Madre de Deus","3510","Brazil",NA,-12.75,-38.6333333333333,"Official"
"218",35115,"Aratu","3510","Brazil",NA,-12.78093,-38.45574,"Official"
"219",35121,"Belem","3510","Brazil",NA,-1.45,-48.5,"Official"
"220",35127,"Cabedelo","3510","Brazil",NA,-6.96666666666667,-34.8333333333333,"Official"
"221",35135,"Itaqui","3510","Brazil",NA,-2.58333333333333,-44.3666666666667,"Official"
"222",35138,"Itajai","3510","Brazil",NA,-26.9166666666667,-48.6333333333333,"Official"
"223",35141,"Maceio","3510","Brazil",NA,-9.67348,-35.72757,"Official"
"224",35144,"Manaus","3510","Brazil",NA,-3.13259,-60.01934,"Official"
"225",35157,"Natal","3510","Brazil",NA,-5.78285,-35.18641,"Official"
"226",35159,"Antonina","3510","Brazil",NA,-25.4333333333333,-48.7,"Official"
"227",35160,"Praia Mole","3510","Brazil",NA,-20.27959,-40.24941,"Official"
"228",35161,"Tramandai","3510","Brazil",NA,-29.9726,-50.11113,"Official"
"229",35165,"Santana","3510","Brazil",NA,-2.72,-57.26,"Official"
"230",35169,"Recife","3510","Brazil",NA,-8.07744,-34.89581,"Official"
"231",35170,"Suape","3510","Brazil",NA,-8.39773,-34.95784,"Official"
"232",35171,"Rio de Janeiro","3510","Brazil",NA,-22.89693,-43.20414,"Official"
"233",35173,"Rio Grande","3510","Brazil",NA,-32.05,-52.083333,"Official"
"234",35175,"Sao Sebastio","3510","Brazil",NA,-23.80211,-45.39138,"Official"
"235",35178,"Imbituba","3510","Brazil",NA,-28.22673,-48.6484,"Official"
"236",35179,"Sao Francisco do Sul","3510","Brazil",NA,-26.23844,-46.63825,"Official"
"237",35181,"Salvador","3510","Brazil",NA,-12.94004,-38.49388,"Official"
"238",35195,"Victoria","3510","Brazil",NA,5.27459,115.25283,"Official"
"239",35300,"All Other Paraguay Ports","3530","Paraguay",NA,-25.373,-57.646,"Official"
"240",35300,"San Antonio","3530","Paraguay",NA,-25.438,-57.56,"Alias"
"241",35301,"Asuncion","3530","Paraguay",NA,-25.285,-57.672,"Official"
"242",35500,"All Other Uruguay Ports","3550","Uruguay","Latitude/Longitude Update",-33.84,-58.437,"Official"
"243",35525,"Montevideo","3550","Uruguay","Latitude/Longitude Update",-34.89,-56.22,"Official"
"244",35535,"Nueva Palmira","3550","Uruguay","Latitude/Longitude Update",-33.88,-58.43,"Official"
"245",35701,"Bahia Blanca","3570","Argentina",NA,-38.76004,-62.34985,"Official"
"246",35705,"Buenos Aires","3570","Argentina",NA,-34.60263,-58.37477,"Official"
"247",35711,"Campana","3570","Argentina",NA,-34.15839,-58.96157,"Official"
"248",35737,"La Plata","3570","Argentina",NA,-34.83312,-57.88833,"Official"
"249",35739,"Mar del Plata","3570","Argentina",NA,-38.00026,-57.54755,"Official"
"250",35741,"Necochea","3570","Argentina",NA,-38.57753,-58.70377,"Official"
"251",35745,"Puerto Deseado","3570","Argentina",NA,-47.74739,-65.89295,"Official"
"252",35771,"Rosario","3570","Argentina",NA,-32.93964,-60.63957,"Official"
"253",35779,"San Lorenzo","3570","Argentina",NA,-32.75467,-60.72285,"Official"
"254",35781,"San Nicolas","3570","Argentina",NA,-33.32087,-60.2264,"Official"
"255",35785,"San Pedro","3570","Argentina",NA,-33.67234,-59.66447,"Official"
"256",35791,"Santa Fe","3570","Argentina",NA,-31.61449,-60.66791,"Official"
"257",35796,"Zarate","3570","Argentina",NA,-34.08148,-59.03484,"Official"
"258",40037,"Reykjavik","4000","Iceland",NA,64.14938,-21.9292,"Official"
"259",40100,"All Other Sweden Ports","4010","Sweden",NA,58.42,18.46,"Official"
"260",40116,"Gafle","4010","Sweden",NA,60.6835,17.202,"Alias"
"261",40117,"Goteborg","4010","Sweden",NA,57.721,11.9854,"Official"
"262",40129,"Iggesund","4010","Sweden",NA,61.6354,17.1,"Official"
"263",40133,"Karlshamn","4010","Sweden",NA,56.161,14.862,"Official"
"264",40142,"Lulea","4010","Sweden",NA,65.56,22.18,"Official"
"265",40143,"Limhamn","4010","Sweden",NA,55.592,12.917,"Official"
"266",40148,"Norrkoping","4010","Sweden",NA,58.6044,16.222,"Official"
"267",40155,"Ornskoldsvik","4010","Sweden",NA,63.272,18.73,"Official"
"268",40159,"Oxelosund","4010","Sweden",NA,58.66,17.113,"Official"
"269",40176,"Stenungsund","4010","Sweden",NA,58.083,11.796,"Official"
"270",40179,"Stockholm","4010","Sweden",NA,59.324,18.053,"Official"
"271",40182,"Sundsvall","4010","Sweden",NA,62.387,17.36,"Official"
"272",40197,"Wallhamn","4010","Sweden",NA,58.009,11.7,"Official"
"273",40300,"All Other Norway Ports","4039","Norway",NA,63.74,7.25,"Official"
"274",40301,"Aalesund","4039","Norway","Change",62.466,6.17,"Alias"
"275",40302,"Aardal","4039","Norway","Change",61.234,7.707,"Alias"
"276",40311,"Sture","4039","Norway",NA,60.62,4.865,"Alias"
"277",40321,"Drammen","4039","Norway",NA,59.743,10.257,"Official"
"278",40334,"Borg Hbr.","4039","Norway",NA,59.186,10.95,"Alias"
"279",40335,"Larvik","4039","Norway",NA,58.09,6.813,"Official"
"280",40340,"Floro","4039","Norway",NA,59.044,10.03,"Official"
"281",40345,"Haugesund","4039","Norway",NA,60.822,5.04,"Official"
"282",40348,"Heroen","4039","Norway",NA,66.308,14.115,"Official"
"283",40364,"Kristiansand S","4039","Norway",NA,58.14,7.985,"Alias"
"284",40370,"Mo i Rana","4039","Norway",NA,68.423,17.41,"Official"
"285",40371,"Moss","4039","Norway",NA,59.898,10.745,"Official"
"286",40373,"Mongstad","4039","Norway",NA,59.11,9.604,"Official"
"287",40377,"Oslo","4039","Norway",NA,58.863,5.75,"Official"
"288",40380,"Salten","4039","Norway",NA,59.116,9.62,"Official"
"289",40387,"Stavanger","4039","Norway",NA,69.669,18.983,"Official"
"290",40390,"Sunndalsora","4039","Norway",NA,63.447,10.415,"Official"
"291",40392,"Svelgen","4039","Norway",NA,68.521,16.99,"Official"
"292",40500,"All Other Finland Ports","4050","Finland",NA,61.79,21.04,"Official"
"293",40523,"Hango","4050","Finland",NA,59.818,22.932,"Official"
"294",40525,"Helsinki","4050","Finland",NA,60.148,24.945,"Official"
"295",40527,"Inga","4050","Finland",NA,60.041,24.009,"Official"
"296",40534,"Porvoo","4050","Finland",NA,60.3809,25.6724,"Official"
"297",40535,"Raahe","4050","Finland",NA,64.684,24.46,"Official"
"298",40543,"Kemi","4050","Finland",NA,65.69,24.55,"Official"
"299",40549,"Kotka","4050","Finland",NA,60.48,26.96,"Official"
"300",40562,"Pori","4050","Finland",NA,61.4912,21.791,"Official"
"301",40571,"Rauma","4050","Finland",NA,61.124,21.448,"Official"
"302",40900,"All Other Denmark Ports","4099","Denmark",NA,56,11.04,"Official"
"303",40906,"Aarhus","4099","Denmark",NA,56.161,10.24,"Official"
"304",40910,"Gulfhavn","4099","Denmark",NA,55.2,11.25,"Official"
"305",40919,"Esbjerg","4099","Denmark",NA,55.458,8.43,"Official"
"306",40921,"Fredericia","4099","Denmark",NA,55.51,9.66,"Official"
"307",40940,"Asnaes","4099","Denmark",NA,55.667,11.8763,"Official"
"308",40948,"Copenhagen","4099","Denmark",NA,55.703,12.62,"Official"
"309",40971,"Stigsnaes","4099","Denmark",NA,55.203,11.25,"Official"
"310",41201,"Avonmouth","4120","United Kingdom",NA,51.49985,-2.71819,"Official"
"311",41207,"Birkenhead","4120","United Kingdom",NA,53.40095,-3.01208,"Official"
"312",41211,"Bristol","4120","United Kingdom",NA,51.49728,-2.70247,"Official"
"313",41216,"Eastham","4120","United Kingdom",NA,53.34708,-2.97606,"Official"
"314",41251,"Liverpool","4120","United Kingdom",NA,53.46288,-3.0263,"Official"
"315",41262,"Portbury","4120","United Kingdom",NA,51.50114,-2.73091,"Official"
"316",41323,"Felixstowe","4120","United Kingdom",NA,51.95982,1.34213,"Official"
"317",41329,"Fawley","4120","United Kingdom",NA,50.84563,-1.35848,"Official"
"318",41335,"Goole","4120","United Kingdom",NA,53.70579,-0.87215,"Official"
"319",41337,"Dover","4120","United Kingdom",NA,51.11127,1.31179,"Official"
"320",41341,"Hull","4120","United Kingdom",NA,53.73986,-0.33812,"Official"
"321",41342,"Immingham","4120","United Kingdom",NA,53.62799,-0.18418,"Official"
"322",41345,"Killingholme","4120","United Kingdom",NA,53.64827,-0.21977,"Official"
"323",41351,"Thamesport","4120","United Kingdom",NA,51.43333,0.7,"Alias"
"324",41352,"London","4120","United Kingdom",NA,51.5,-0.08333,"Official"
"325",41356,"Newcastle on Tyne","4120","United Kingdom",NA,55.00918,-1.42438,"Official"
"326",41357,"Newhaven","4120","United Kingdom",NA,50.78512,0.04068,"Official"
"327",41360,"Plymouth","4120","United Kingdom",NA,50.33333,-4.166667,"Official"
"328",41374,"Southhampton","4120","United Kingdom",NA,50.91723,-1.37801,"Official"
"329",41377,"North Tees","4120","United Kingdom",NA,54.65004,-1.13684,"Official"
"330",41380,"Tilbury","4120","United Kingdom",NA,51.45451,0.35891,"Official"
"331",41398,"Portland","4120","United Kingdom",NA,-38.33318,141.60642,"Alias"
"332",41398,"Portsmouth","4120","United Kingdom",NA,15.57121,-61.4661,"Alias"
"333",41446,"Milford Haven","4120","United Kingdom",NA,51.69867,-5.1584,"Official"
"334",41465,"Pembroke","4120","United Kingdom",NA,51.68292,-4.92439,"Official"
"335",41477,"Port Talbot","4120","United Kingdom",NA,51.5942,-3.81995,"Official"
"336",41623,"Glasgow","4120","United Kingdom",NA,55.86667,-4.28333,"Official"
"337",41625,"Greenock","4120","United Kingdom",NA,55.95005,-4.75695,"Official"
"338",41640,"Peterhead","4120","United Kingdom",NA,57.5,-1.78333333333333,"Official"
"339",41650,"Aberdeen","4120","United Kingdom",NA,57.1412,-2.08794,"Official"
"340",41665,"Grangemouth","4120","United Kingdom",NA,56.02531,-3.71449,"Official"
"341",41801,"Belfast","4120","United Kingdom",NA,54.60004,-5.92977,"Official"
"342",41815,"Londonderry","4120","United Kingdom",NA,54.98833,-7.3177,"Official"
"343",41905,"Cork","4190","Ireland",NA,51.85,-8.26666666666667,"Official"
"344",41910,"Waterford","4190","Ireland",NA,52.26292,-7.10006,"Official"
"345",41911,"Dublin","4190","Ireland",NA,53.3622,-6.23654,"Official"
"346",41913,"Foynes","4190","Ireland",NA,52.61585,-9.10576,"Official"
"347",41922,"Greenore","4190","Ireland",NA,54.02993,-6.1325,"Official"
"348",42100,"All Other Netherlands Ports","4210","Netherlands",NA,53.1,4.56,"Official"
"349",42105,"Amsterdam","4210","Netherlands",NA,52.38126,4.9092,"Official"
"350",42115,"Botlek","4210","Netherlands",NA,51.893,4.3093,"Official"
"351",42117,"Dordrecht","4210","Netherlands",NA,51.8138,4.655,"Official"
"352",42119,"Moerdjik","4210","Netherlands",NA,51.6955,4.58,"Official"
"353",42132,"Eemshaven","4210","Netherlands",NA,53.222,6.566,"Official"
"354",42151,"Pernis","4210","Netherlands",NA,51.892,4.4,"Official"
"355",42157,"Rotterdam","4210","Netherlands",NA,51.899,4.458,"Official"
"356",42171,"Terneuzen","4210","Netherlands",NA,51.344,3.819,"Official"
"357",42185,"Flushing","4210","Netherlands",NA,51.442,3.6015,"Alias"
"358",42190,"Velsen","4210","Netherlands",NA,52.465,4.631,"Official"
"359",42300,"All Other Belgium Ports","4231","Belgium",NA,51.39,3.32,"Official"
"360",42305,"Antwerp","4231","Belgium",NA,51.259,4.357,"Alias"
"361",42315,"Brussels","4231","Belgium",NA,50.862,4.3492,"Official"
"362",42331,"Ghent","4231","Belgium",NA,51.1237,3.761,"Official"
"363",42381,"Zeebrugge","4231","Belgium",NA,51.324,3.199,"Official"
"364",42385,"Hemiksem","4231","Belgium",NA,51.148,4.33,"Official"
"365",42701,"Bassens","4279","France",NA,44.90361,-0.53458,"Official"
"366",42707,"Bordeaux","4279","France",NA,44.83967,-0.56568,"Official"
"367",42713,"Calais","4279","France",NA,50.96913,1.85108,"Official"
"368",42723,"Donges","4279","France",NA,47.30774,-2.06002,"Official"
"369",42727,"Dunkerque","4279","France",NA,51.0493,2.38395,"Official"
"370",42733,"La Pallice","4279","France",NA,46.16825,-1.23721,"Official"
"371",42737,"Le Havre","4279","France",NA,49.48526,0.10804,"Official"
"372",42759,"Rouen","4279","France",NA,49.45087,1.05324,"Official"
"373",42762,"St. Nazaire","4279","France",NA,47.26475,-2.22004,"Official"
"374",42776,"Fos","4279","France",NA,43.4166666666667,4.88333333333333,"Official"
"375",42782,"Marseille","4279","France",NA,43.30319,5.36978,"Official"
"376",42800,"All Other Germany Baltic Region Ports","4280","Germany",NA,54.54,10.85,"Official"
"377",42811,"Rostock","4280","Germany",NA,54.161,12.1,"Official"
"378",42867,"Brake","4280","Germany",NA,53.33456,8.49109,"Official"
"379",42869,"Bremen","4280","Germany",NA,53.108,8.745,"Official"
"380",42870,"Bremerhaven","4280","Germany",NA,53.546,8.56,"Official"
"381",42871,"Brunsbuttel","4280","Germany",NA,53.886,9.15745,"Official"
"382",42875,"Emden","4280","Germany",NA,53.3335,7.1885,"Official"
"383",42876,"Hamburg","4280","Germany",NA,53.54,9.98,"Official"
"384",42881,"Harburg","4280","Germany",NA,53.473,9.9905,"Official"
"385",42883,"Nordenham","4280","Germany",NA,53.495,8.502,"Official"
"386",42891,"Wilhelmshaven","4280","Germany",NA,53.54,8.18,"Official"
"387",42899,"All Other Germany Atlantic Region Ports","4280","Germany",NA,53.94,8.1,"Official"
"388",44700,"All Other Estonia Ports","4470","Estonia",NA,59.563,24.785,"Official"
"389",44701,"Tallinn","4470","Estonia",NA,59.45412,24.74781,"Official"
"390",44911,"Riga","4490","Latvia",NA,56.93961,24.11209,"Official"
"391",44951,"Ventspils","4490","Latvia",NA,57.402,21.538,"Official"
"392",45100,"All Other Lithuania Ports","4510","Lithuania",NA,55.682,21.137,"Official"
"393",45101,"Klaipeda","4510","Lithuania",NA,55.682,21.137,"Official"
"394",45500,"All Other Poland Ports","4550","Poland",NA,54.65,16.7,"Official"
"395",45505,"Gdynia","4550","Poland",NA,54.536,18.54,"Official"
"396",45507,"Stettin","4550","Poland",NA,53.4208,14.5578,"Alias"
"397",45511,"Gdansk","4550","Poland",NA,54.381,18.659,"Official"
"398",45512,"Swinoujscie","4550","Poland",NA,53.906,14.261,"Official"
"399",45513,"Police","4550","Poland",NA,53.566,14.59,"Official"
"400",46215,"St. Petersburg","4621","Russia",NA,59.91667,30.25739,"Official"
"401",46241,"Novorossiysk","4621","Russia",NA,44.71335,37.78831,"Official"
"402",46321,"Batumi","4633","Georgia",NA,41.653,41.65,"Official"
"403",46337,"Poti","4633","Georgia",NA,42.1554,41.649,"Official"
"404",47003,"Aviles","4700","Spain",NA,43.6,-5.93333333333333,"Official"
"405",47005,"Bilbao","4700","Spain",NA,43.31154,-2.98673,"Official"
"406",47013,"Santander","4700","Spain",NA,43.4624,-3.79499,"Official"
"407",47017,"Gijon","4700","Spain",NA,43.55,-5.66666666666667,"Official"
"408",47021,"La Coruna","4700","Spain",NA,43.3666666666667,-8.4,"Official"
"409",47027,"Pasages","4700","Spain",NA,43.33095,-1.92219,"Official"
"410",47029,"Vigo","4700","Spain",NA,42.24067,-8.71191,"Official"
"411",47031,"Algeciras","4700","Spain",NA,36.12631,-5.44355,"Official"
"412",47035,"Cadiz","4700","Spain",NA,36.53255,-6.29697,"Official"
"413",47039,"Sevilla","4700","Spain",NA,37.36988,-5.99197,"Official"
"414",47044,"Huelva","4700","Spain",NA,37.21333,-6.94484,"Official"
"415",47057,"Alicante","4700","Spain",NA,38.33723,-0.48689,"Official"
"416",47059,"Almeria","4700","Spain",NA,36.83812,-2.46603,"Official"
"417",47061,"Barcelona","4700","Spain",NA,41.3736,2.18034,"Official"
"418",47063,"Cartagena","4700","Spain",NA,37.5833333333333,-0.983333333333333,"Official"
"419",47071,"Las Palmas","4700","Spain",NA,28.15,-15.4166666666667,"Official"
"420",47076,"Malaga","4700","Spain",NA,36.71693,-4.41696,"Official"
"421",47077,"Motril","4700","Spain",NA,36.7271,-3.51259,"Official"
"422",47083,"Sagunto","4700","Spain",NA,39.65257,-0.21121,"Official"
"423",47092,"Tarragona","4700","Spain",NA,41.1108,1.24071,"Official"
"424",47093,"Gandia","4700","Spain",NA,38.98944,-0.14795,"Official"
"425",47094,"Valencia","4700","Spain",NA,39.45895,-0.32297,"Official"
"426",47100,"Lagos","4710","Portugal",NA,6.4,3.4,"Alias"
"427",47125,"Lisbon","4710","Portugal",NA,38.6951,-9.17784,"Official"
"428",47127,"Sines","4710","Portugal",NA,37.9495,-8.8628,"Official"
"429",47130,"Aveiro","4710","Portugal",NA,40.65006,-8.75033,"Official"
"430",47141,"Setubal","4710","Portugal",NA,38.51774,-8.88646,"Official"
"431",47151,"Ponta Delgada","4710","Portugal",NA,37.73725,-25.65854,"Official"
"432",47152,"Praia de Vitoria","4710","Portugal",NA,38.71667,-27.05,"Official"
"433",47201,"Gibraltar","4720","Gibraltar",NA,36.134,-5.38,"Official"
"434",47300,"All Other Malta Ports","4730","Malta",NA,35.97,14.45,"Official"
"435",47305,"Valletta","4730","Malta",NA,35.889,14.511,"Official"
"436",47507,"Naples","4759","Italy",NA,40.83591,14.28791,"Official"
"437",47515,"Piombino","4759","Italy",NA,42.93201,10.54441,"Official"
"438",47517,"Savona","4759","Italy",NA,44.31406,8.48335,"Official"
"439",47519,"Civitavecchia","4759","Italy",NA,42.09104,11.78696,"Official"
"440",47525,"Gaeta","4759","Italy",NA,41.20815,13.57979,"Official"
"441",47531,"La Spezia","4759","Italy",NA,44.10954,9.83303,"Official"
"442",47536,"Gioia Tauro","4759","Italy",NA,38.46667,15.88333,"Official"
"443",47537,"Leghorn","4759","Italy",NA,43.57632,10.31464,"Official"
"444",47538,"Salerno","4759","Italy",NA,40.67845,14.75303,"Official"
"445",47539,"Vada","4759","Italy",NA,43.3509,10.45163,"Official"
"446",47540,"Vado Ligure","4759","Italy",NA,44.27925,8.4422,"Official"
"447",47542,"Augusta","4759","Italy",NA,37.23481,15.22245,"Official"
"448",47548,"Catania","4759","Italy",NA,37.48394,15.09115,"Official"
"449",47550,"Milazzo","4759","Italy",NA,38.21134,15.25975,"Official"
"450",47551,"Palermo","4759","Italy",NA,38.12473,13.37437,"Official"
"451",47563,"Cagliari","4759","Italy",NA,39.08454,9.02083,"Official"
"452",47567,"Sarroch Oil Terminal","4759","Italy",NA,39.06667,9.03333,"Official"
"453",47571,"Ancona","4759","Italy",NA,43.62356,13.50621,"Official"
"454",47578,"Bari","4759","Italy",NA,41.13086,16.85006,"Official"
"455",47582,"Crotone","4759","Italy",NA,39.0833333333333,17.1333333333333,"Official"
"456",47583,"Brindisi","4759","Italy",NA,40.64532,17.95187,"Official"
"457",47584,"Porto Corsini","4759","Italy",NA,44.5,12.2833333333333,"Official"
"458",47585,"Taranto","4759","Italy",NA,40.48183,17.20863,"Official"
"459",47587,"Trieste","4759","Italy",NA,45.65088,13.75414,"Official"
"460",47588,"Monfalcone","4759","Italy",NA,45.79102,13.53892,"Official"
"461",47595,"Lido","4759","Italy",NA,45.43196,12.31776,"Official"
"462",47909,"Kopar","4792","Slovenia",NA,45.56,13.727,"Alias"
"463",47911,"Kardeljevo","4791","Croatia",NA,43.049,17.43011,"Official"
"464",47923,"Bakar","4791","Croatia",NA,45.315225,14.484375,"Official"
"465",47999,"All Other Slovenia Ports","4792","Slovenia",NA,45.537,13.64,"Official"
"466",48109,"Durazzo","4810","Albania","Latitude/Longitude Update",41.309,19.454,"Official"
"467",48400,"Lagos","4840","Greece",NA,41,25.133333,"Alias"
"468",48411,"Heraklion","4840","Greece",NA,35.34806,25.15302,"Official"
"469",48445,"Elefsis","4840","Greece",NA,38.03333,23.55,"Official"
"470",48451,"Patrai","4840","Greece",NA,38.24092,21.72486,"Official"
"471",48471,"Salonika","4840","Greece",NA,40.63955,22.95071,"Official"
"472",48473,"Volos","4840","Greece",NA,39.352,22.93611,"Official"
"473",48500,"All Other Romania Ports","4850","Romania","Latitude/Longitude Update",44.36,28.75,"Official"
"474",48511,"Constanta","4850","Romania","Latitude/Longitude Update",44.13,28.68,"Official"
"475",48700,"All Other Ports in Bulgaria","4870","Bulgaria",NA,42.72,27.97,"Official"
"476",48707,"Varna","4870","Bulgaria",NA,43.198,27.93,"Official"
"477",48905,"Dikili","4890","Turkey",NA,39.08144,26.88972,"Official"
"478",48931,"Alexandretta","4890","Turkey",NA,36.59242,36.15106,"Official"
"479",48938,"Mersin","4890","Turkey",NA,36.7914,34.62563,"Official"
"480",48939,"Izmir","4890","Turkey",NA,38.45432,27.16842,"Official"
"481",48940,"Izmit","4890","Turkey",NA,40.76955,29.9366,"Official"
"482",48942,"Derince","4890","Turkey",NA,40.75,29.8166666666667,"Official"
"483",48943,"Eregli","4890","Turkey",NA,41.3,31.45,"Official"
"484",48945,"Istanbul","4890","Turkey",NA,41.0341,28.99446,"Official"
"485",48946,"Giresun","4890","Turkey",NA,40.92054,38.39061,"Official"
"486",48947,"Gemlik","4890","Turkey",NA,40.45,29.2,"Official"
"487",48963,"Bandirma","4890","Turkey",NA,40.35,27.9666666666667,"Official"
"488",48967,"Samsun","4890","Turkey",NA,41.29464,36.34248,"Official"
"489",48971,"Yalova","4890","Turkey",NA,40.65,29.26667,"Official"
"490",49133,"Larnaca","4910","Cyprus",NA,34.928,33.647,"Official"
"491",49134,"Vassiliko","4910","Cyprus",NA,34.715,33.296,"Official"
"492",49135,"Limassol","4910","Cyprus",NA,34.672,33.047,"Official"
"493",49199,"All Other Cyprus Ports","4910","Cyprus",NA,34.7,33.3217,"Official"
"494",50215,"Al Ladhiqiyah","5020","Syria","Latitude/Longitude Update",35.522,35.7645,"Official"
"495",50400,"All Other Lebanon Ports","5040","Lebanon","Latitude/Longitude Update",33.95,35.55,"Official"
"496",50401,"Beirut","5040","Lebanon","Latitude/Longitude Update",33.906,35.5215,"Official"
"497",50405,"Tripoli","5040","Lebanon","New Schedule K Code Added",34.46,35.823,"Official"
"498",50505,"Al Bakir","5050","Iraq",NA,29.68333,48.81667,"Official"
"499",50800,"All Other Israel Mediterranean Area Ports","5081","Israel","Latitude/Longitude Update",32.2,34.774,"Official"
"500",50801,"Haifa","5081","Israel","Latitude/Longitude Update",32.4028,34.866,"Official"
"501",50805,"Ashdod","5081","Israel","Latitude/Longitude Update",31.68,34.55,"Official"
"502",50810,"Ascalon","5081","Israel","Latitude/Longitude Update",31.638,34.51,"Official"
"503",51105,"Aqaba","5110","Jordan",NA,29.52,34.99,"Official"
"504",51321,"Kuwait","5130","Kuwait",NA,29.38333,47.96667,"Official"
"505",51350,"Ash Shuaiba","5130","Kuwait",NA,29.02746,48.16172,"Official"
"506",51720,"Al Jubail","5170","Saudi Arabia",NA,27.01669,49.66032,"Official"
"507",51721,"Jiddah","5170","Saudi Arabia",NA,21.4666666666667,39.1666666666667,"Official"
"508",51727,"Ras Tanura","5170","Saudi Arabia",NA,26.64831,50.1585,"Official"
"509",51800,"All Other Qatar Ports","5180","Qatar","Latitude/Longitude Update",25.245,51.65,"Official"
"510",51813,"Doha","5180","Qatar","Latitude/Longitude Update",25.306,51.563,"Official"
"511",51814,"Ras Laffan","5180","Qatar","Latitude/Longitude Update",25.92,51.644,"Official"
"512",52001,"Abu Dhabi","5200","United Arab Em",NA,24.5333333333333,54.3833333333333,"Official"
"513",52051,"Jebel Ali","5200","United Arab Em",NA,25.00073,55.04932,"Official"
"514",52070,"Ash Shariqah","5200","United Arab Em",NA,25.37238,55.40501,"Official"
"515",52077,"Fujairah","5200","United Arab Em",NA,25.13312,56.35557,"Official"
"516",52101,"Aden","5210","Yemen",NA,12.78988,45.01887,"Official"
"517",52330,"Mina Raysut","5230","Oman",NA,16.9333333333333,54.0166666666667,"Official"
"518",52335,"Sohar","5230","Oman",NA,24.504167,56.610278,"Official"
"519",52500,"All Other Bahrain Ports","5250","Bahrain","Latitude/Longitude Update",26.217,50.632,"Official"
"520",52501,"Mina Sulman","5250","Bahrain","Latitude/Longitude Update",26.195,50.624,"Official"
"521",52503,"Khalifa Bin Salman","5250","Bahrain","Latitude/Longitude Update",26.185,50.7,"Official"
"522",53304,"Pipavav","5330","India",NA,20.54,71.3,"Official"
"523",53305,"Bedi","5330","India",NA,22.5166666666667,70.0333333333333,"Official"
"524",53306,"Mundra","5330","India",NA,22.9,69.7,"Official"
"525",53307,"Kandla","5330","India",NA,22.99591,70.19395,"Official"
"526",53309,"Hazira","5330","India",NA,21.1,72.61667,"Official"
"527",53312,"Bombay","5330","India",NA,18.93189,72.82121,"Official"
"528",53333,"Cochin","5330","India",NA,9.95448,76.24464,"Official"
"529",53340,"Marmagao Bay","5330","India",NA,15.4031,73.79991,"Official"
"530",53343,"Mangalore","5330","India",NA,12.85,74.8333333333333,"Official"
"531",53353,"Calcutta","5330","India",NA,22.55301,88.33819,"Official"
"532",53354,"Haldia","5330","India",NA,22.01367,88.07551,"Official"
"533",53357,"Madras","5330","India",NA,13.09849,80.29704,"Official"
"534",53371,"Paradip","5330","India",NA,20.28195,86.69426,"Official"
"535",53395,"New Tuticorin","5330","India",NA,8.8,78.16667,"Official"
"536",53399,"Visakhapatnam","5330","India",NA,17.70321,83.31038,"Official"
"537",53550,"Karachi","5350","Pakistan",NA,24.815,66.969,"Official"
"538",53551,"Port Muhammad Bin Qasim","5350","Pakistan",NA,24.774,67.3,"Alias"
"539",53599,"All Other Pakistan Ports","5350","Pakistan",NA,24.95,66.5,"Official"
"540",53800,"All Other Bangladesh Ports","5380","Bangladesh",NA,21.85,91,"Official"
"541",53827,"Chittagong","5380","Bangladesh",NA,22.209,91.807,"Official"
"542",54201,"Colombo","5420","Sri Lanka","Latitude/Longitude Update",6.945,79.82,"Official"
"543",54205,"Trincomalee","5420","Sri Lanka","Latitude/Longitude Update",8.5732,81.2015,"Official"
"544",54600,"All Other Burma Ports","5460","Burma (Myanmar)",NA,16.75,96.2,"Official"
"545",54601,"Rangoon","5460","Burma (Myanmar)",NA,16.8,96.118,"Official"
"546",54901,"Bangkok","5490","Thailand",NA,13.68257,100.51853,"Official"
"547",54905,"Sri Racha","5490","Thailand",NA,13.10984,100.88625,"Official"
"548",54927,"Songkhla","5490","Thailand",NA,7.20831,100.59211,"Official"
"549",54930,"Laem Chabang","5490","Thailand",NA,13.07847,100.89073,"Official"
"550",55201,"Hai Phong","5520","Vietnam",NA,20.86835,106.69041,"Official"
"551",55202,"Hon Gai","5520","Vietnam",NA,20.94826,107.07955,"Official"
"552",55204,"Da Nang","5520","Vietnam",NA,16.15,108.2,"Official"
"553",55205,"Cam Pha","5520","Vietnam",NA,21.03333,107.36667,"Official"
"554",55206,"Vung Tau","5520","Vietnam",NA,10.32558,107.08051,"Official"
"555",55500,"All Ports in Cambodia","5550","Cambodia",NA,10.8,103.32,"Official"
"556",55706,"Sandakan","5570","Malaysia",NA,5.83808,118.11669,"Official"
"557",55707,"Johore","5570","Malaysia",NA,1.43591,103.90162,"Official"
"558",55713,"Kuching","5570","Malaysia",NA,1.55773,110.37138,"Official"
"559",55715,"Kuantan","5570","Malaysia",NA,3.96306,103.43346,"Official"
"560",55717,"Victoria","5570","Malaysia",NA,5.27459,115.25283,"Official"
"561",55725,"Lahad Datu","5570","Malaysia",NA,5.02422,118.32734,"Official"
"562",55732,"Bintulu","5570","Malaysia",NA,3.18681,113.02955,"Official"
"563",55751,"Kelang","5570","Malaysia",NA,3,101.4,"Official"
"564",55752,"Kota Kinabalu","5570","Malaysia",NA,5.97135,116.06661,"Official"
"565",55753,"Port Dickson","5570","Malaysia",NA,2.51932,101.80169,"Official"
"566",55900,"All Other Singapore Ports","5590","Singapore","Latitude/Longitude Update",1.287,103.745,"Official"
"567",55976,"Singapore","5590","Singapore","Latitude/Longitude Update",1.258,103.85,"Official"
"568",56007,"Balikpapan","5600","Indonesia",NA,-1.25871,116.81822,"Official"
"569",56013,"Banjarmasin","5600","Indonesia",NA,-3.31524,114.56606,"Official"
"570",56028,"Bitung","5600","Indonesia",NA,1.44911,125.20544,"Official"
"571",56033,"Jakarta","5600","Indonesia",NA,-6.138025,106.854237,"Official"
"572",56036,"Cilacap","5600","Indonesia",NA,-7.73333333333333,109,"Official"
"573",56039,"Merak","5600","Indonesia",NA,-5.91006,106.00109,"Official"
"574",56051,"Semarang","5600","Indonesia",NA,-6.94945,110.42143,"Official"
"575",56053,"Soerabaja","5600","Indonesia",NA,-7.20272,112.73112,"Official"
"576",56073,"Belawan","5600","Indonesia",NA,3.7852,98.68243,"Official"
"577",56075,"Dumai","5600","Indonesia",NA,1.68479,101.44988,"Official"
"578",56081,"Padang","5600","Indonesia",NA,-0.94147,100.3457,"Official"
"579",56083,"Palembang","5600","Indonesia",NA,-2.98719,104.76772,"Official"
"580",56097,"Pandjang","5600","Indonesia",NA,-5.46667,105.31667,"Official"
"581",56100,"Lumut","5610","Brunei",NA,4.7167,114.45,"Alias"
"582",56151,"Muara Port","5610","Brunei",NA,5.022,115.074,"Official"
"583",56500,"Cadiz","5650","Philippines",NA,10.95,123.316667,"Alias"
"584",56506,"Batangas","5650","Philippines",NA,13.40901,121.15221,"Official"
"585",56507,"Bataan","5650","Philippines",NA,14.5,120.60665,"Official"
"586",56514,"Buayan","5650","Philippines",NA,8.4897,124.64664,"Official"
"587",56520,"Cebu","5650","Philippines",NA,10.3,123.9,"Official"
"588",56523,"Davao","5650","Philippines",NA,7.06601,125.61737,"Official"
"589",56530,"Hondagua","5650","Philippines",NA,13.94439,122.21855,"Official"
"590",56531,"Iligan","5650","Philippines",NA,8.22764,124.23477,"Official"
"591",56532,"Iloilo","5650","Philippines",NA,10.6929,122.56471,"Official"
"592",56545,"Mariveles","5650","Philippines",NA,14.43333,120.48333,"Official"
"593",56549,"Manila","5650","Philippines",NA,14.58954,120.96089,"Official"
"594",56585,"Olongapo","5650","Philippines",NA,14.8166666666667,120.266666666667,"Official"
"595",56649,"Macao","5660","Macau",NA,22.183,113.567,"Alias"
"596",56805,"Male, Male Island","5683","Maldives",NA,4.16667,73.5,"Official"
"597",57012,"Haikou","5700","China",NA,20.0386,110.32053,"Official"
"598",57013,"Hankow","5700","China",NA,30.56474,114.2735,"Official"
"599",57017,"Dagu/Tanggu","5700","China",NA,38.96667,117.666667,"Official"
"600",57019,"Zhenjiang","5700","China",NA,32.13,119.24,"Official"
"601",57020,"Ningbo","5700","China",NA,29.977009,121.75576,"Official"
"602",57022,"Huizhou","5700","China",NA,22.7,114.567,"Official"
"603",57025,"Lianyungang","5700","China",NA,34.7333333333333,119.45,"Official"
"604",57035,"Shanghai","5700","China",NA,31.2378,121.4882,"Official"
"605",57042,"Qinzhou","5700","China",NA,21.68317,108.647,"Official"
"606",57043,"Tianjin","5700","China",NA,39.13333,117.2,"Official"
"607",57044,"Fangcheng","5700","China",NA,21.54269,108.27943,"Official"
"608",57051,"Dalian","5700","China",NA,38.88333,121.6167,"Official"
"609",57069,"Amoy","5700","China",NA,24.44978,118.07678,"Official"
"610",57071,"Guangzhou","5700","China",NA,23.1,113.233333333333,"Official"
"611",57072,"Huangpu","5700","China",NA,23.0833333333333,113.416666666667,"Official"
"612",57073,"Nansha","5700","China",NA,22.833,113.567,"Official"
"613",57074,"Nantong","5700","China",NA,32,120.81866,"Official"
"614",57075,"Zhanjiang","5700","China",NA,21.18935,110.40172,"Official"
"615",57078,"Yantian","5700","China",NA,22.57643,114.26057,"Official"
"616",57080,"Jiangyin","5700","China",NA,31.91122,120.20301,"Official"
"617",58023,"Pusan","5800","South Korea",NA,35.12373,129.06172,"Official"
"618",58028,"Kunsan","5800","South Korea",NA,35.9833333333333,126.7,"Official"
"619",58029,"Inchon","5800","South Korea",NA,37.4666666666667,126.616666666667,"Official"
"620",58033,"Masan","5800","South Korea",NA,35.18383,128.56991,"Official"
"621",58035,"Mogpo","5800","South Korea",NA,34.76636,126.40345,"Official"
"622",58055,"Pohang","5800","South Korea",NA,36.01106,129.40153,"Official"
"623",58061,"Onsan","5800","South Korea",NA,35.50236,129.35112,"Official"
"624",58065,"Samil","5800","South Korea",NA,34.73142,127.75081,"Official"
"625",58201,"Hong Kong","5820","Hong Kong",NA,22.2908,114.156,"Official"
"626",58302,"Su Ao","5830","China Taiwan",NA,24.60253,121.85503,"Official"
"627",58303,"Tai Chung","5830","China Taiwan",NA,24.23043,120.50765,"Official"
"628",58309,"Kao Hsiung","5830","China Taiwan",NA,22.60778,120.2609,"Official"
"629",58803,"Fukuyama","5880","Japan",NA,34.44989,133.41946,"Official"
"630",58805,"Oita","5880","Japan",NA,33.24339,131.60776,"Official"
"631",58807,"Kagoshima","5880","Japan",NA,31.57969,130.56542,"Official"
"632",58808,"Hachinohe","5880","Japan",NA,40.52906,141.55504,"Official"
"633",58810,"Toyama","5880","Japan",NA,36.75077,137.22211,"Official"
"634",58811,"Tomakomai","5880","Japan",NA,42.63891,141.62587,"Official"
"635",58814,"Shimonoseki","5880","Japan",NA,33.94392,130.94225,"Official"
"636",58825,"Hakata","5880","Japan",NA,33.59949,130.40395,"Official"
"637",58827,"Kimitsu","5880","Japan",NA,35.38,139.83,"Official"
"638",58828,"Higashi Harima","5880","Japan",NA,34.7,134.85,"Official"
"639",58829,"Ishinomaki","5880","Japan",NA,38.41211,141.31753,"Official"
"640",58830,"Hirohata","5880","Japan",NA,34.77798,134.64981,"Official"
"641",58831,"Hiroshima","5880","Japan",NA,34.36932,132.46095,"Official"
"642",58832,"Akita Ko","5880","Japan",NA,39.72836,140.08174,"Official"
"643",58833,"Iwakuni","5880","Japan",NA,34.15831,132.2392,"Official"
"644",58834,"Kamaishi","5880","Japan",NA,39.27044,141.89119,"Official"
"645",58835,"Mogi","5880","Japan",NA,33.88736,130.92152,"Official"
"646",58838,"Kawasaki","5880","Japan",NA,35.53045,139.75999,"Official"
"647",58839,"Kashima","5880","Japan",NA,35.90119,140.69651,"Official"
"648",58840,"Kobe","5880","Japan",NA,34.67862,135.19124,"Official"
"649",58842,"Kawanoe","5880","Japan",NA,34.01575,133.57648,"Official"
"650",58844,"Aomori","5880","Japan",NA,40.83126,140.76651,"Official"
"651",58845,"Hiro","5880","Japan",NA,34.2389,132.53375,"Official"
"652",58846,"Kushiro","5880","Japan",NA,42.96748,144.36359,"Official"
"653",58848,"Maizuru","5880","Japan",NA,35.44886,135.31564,"Official"
"654",58849,"Matsuyama","5880","Japan",NA,33.86078,132.71407,"Official"
"655",58851,"Miike","5880","Japan",NA,33.00621,130.4306,"Official"
"656",58854,"Mizushima","5880","Japan",NA,34.5,133.733333333333,"Official"
"657",58855,"Muroran","5880","Japan",NA,42.33503,140.96466,"Official"
"658",58856,"Nagasaki","5880","Japan",NA,32.7534,129.86288,"Official"
"659",58857,"Nagoya","5880","Japan",NA,35.10139,136.89946,"Official"
"660",58858,"Niihama","5880","Japan",NA,33.95999,133.25916,"Official"
"661",58859,"Niigata","5880","Japan",NA,37.92603,139.0647,"Official"
"662",58862,"Kanda","5880","Japan",NA,33.83375,130.96292,"Official"
"663",58866,"Osaka","5880","Japan",NA,34.65,135.433333333333,"Official"
"664",58867,"Otaru","5880","Japan",NA,43.19951,141.00862,"Official"
"665",58871,"Himeji","5880","Japan",NA,34.7666666666667,134.683333333333,"Official"
"666",58872,"Kinuura","5880","Japan",NA,34.82841,136.9372,"Official"
"667",58873,"Kochi","5880","Japan",NA,33.54318,133.56363,"Official"
"668",58874,"Sakai","5880","Japan",NA,34.55573,135.44874,"Official"
"669",58875,"Sakaide","5880","Japan",NA,34.3189,133.83981,"Official"
"670",58876,"Sakata","5880","Japan",NA,38.91283,139.83489,"Official"
"671",58877,"Shiogama","5880","Japan",NA,38.32146,141.03185,"Official"
"672",58878,"Shimizu","5880","Japan",NA,32.7666666666667,132.95,"Official"
"673",58880,"Tagonoura","5880","Japan",NA,35.13345,138.69918,"Official"
"674",58881,"Tobata","5880","Japan",NA,33.91118,130.83664,"Official"
"675",58883,"Toyohashi","5880","Japan",NA,34.69653,137.31348,"Official"
"676",58885,"Tokuyama","5880","Japan",NA,34.03487,131.80574,"Official"
"677",58886,"Tokyo","5880","Japan",NA,35.71334,139.75898,"Official"
"678",58887,"Yatsushiro","5880","Japan",NA,32.5,130.583333333333,"Official"
"679",58888,"Ube","5880","Japan",NA,33.93906,131.22875,"Official"
"680",58889,"Tsukumi","5880","Japan",NA,33.08082,131.86094,"Official"
"681",58891,"Wakayama","5880","Japan",NA,34.2333333333333,135.133333333333,"Official"
"682",58892,"Naoetsu","5880","Japan",NA,37.1833333333333,138.25,"Official"
"683",58894,"Yokkaichi","5880","Japan",NA,34.96249,136.63361,"Official"
"684",58895,"Yokohama","5880","Japan",NA,35.45423,139.63771,"Official"
"685",60204,"Mackay","6021","Australia",NA,-21.14391,149.17775,"Official"
"686",60205,"Botany Bay","6021","Australia",NA,-33.94928,151.18234,"Official"
"687",60210,"Brisbane","6021","Australia",NA,-27.47129,153.01488,"Official"
"688",60213,"Bunbury","6021","Australia",NA,-33.32178,115.64194,"Official"
"689",60218,"Dampier","6021","Australia",NA,-20.66418,116.7048,"Official"
"690",60220,"Darwin","6021","Australia",NA,-12.42834,130.8376,"Official"
"691",60222,"Fremantle","6021","Australia",NA,-32.09844,115.75993,"Official"
"692",60224,"Geraldton","6021","Australia",NA,-28.77432,114.59641,"Official"
"693",60225,"Geelong","6021","Australia",NA,-38.14856,144.36113,"Official"
"694",60231,"Gladstone","6021","Australia",NA,-23.84872,151.27261,"Official"
"695",60234,"Kwinana","6021","Australia",NA,-32.23494,115.7589,"Official"
"696",60237,"Melbourne","6021","Australia",NA,-37.8333333333333,144.966666666667,"Official"
"697",60240,"Newcastle","6021","Australia",NA,-32.97666,151.61133,"Official"
"698",60252,"Port Kembla","6021","Australia",NA,-34.46353,150.90147,"Official"
"699",60261,"Portland","6021","Australia",NA,-38.33318,141.60642,"Official"
"700",60267,"Sydney","6021","Australia",NA,-33.86667,151.2,"Official"
"701",60273,"Townsville","6021","Australia",NA,-19.26208,146.82307,"Official"
"702",60280,"Westernport","6021","Australia",NA,-38.37078,145.2157,"Official"
"703",60290,"Bell Bay","6021","Australia",NA,-41.19,146.84215,"Official"
"704",60291,"Burnie","6021","Australia",NA,-41.05172,145.90622,"Official"
"705",60441,"Lae","6040","Papua New Guinea",NA,-6.73503,146.97957,"Official"
"706",60447,"Port Moresby","6040","Papua New Guinea",NA,-9.48078,147.15024,"Official"
"707",60449,"Rabaul","6040","Papua New Guinea",NA,-4.20514,152.16111,"Official"
"708",61401,"Auckland","6141","New Zealand",NA,-36.86531,174.7896,"Official"
"709",61403,"Bluff Harbor","6141","New Zealand",NA,-46.61115,168.3549,"Official"
"710",61406,"Nelson","6141","New Zealand",NA,-41.28455,173.23712,"Official"
"711",61415,"Port Lyttelton","6141","New Zealand",NA,-43.60394,172.71724,"Official"
"712",61416,"Mangonui","6141","New Zealand",NA,-37.63814,176.1761,"Official"
"713",61419,"Napier","6141","New Zealand",NA,-39.48124,176.89184,"Official"
"714",61423,"New Plymouth","6141","New Zealand",NA,-39.06092,174.02641,"Official"
"715",61431,"Port Chalmers","6141","New Zealand",NA,-45.76297,170.66696,"Official"
"716",61443,"Taoranga","6141","New Zealand",NA,-37.69423,176.16194,"Official"
"717",61447,"Wellington","6141","New Zealand",NA,-41.32022,174.80721,"Official"
"718",61501,"Apia","6150","Samoa",NA,-13.82425,-171.75535,"Official"
"719",62209,"Port Vila","6224","Vanuatu",NA,-17.755,168.3,"Official"
"720",62231,"Funafuti Atoll","6227","Tuvalu",NA,-8.49773,179.18956,"Official"
"721",64100,"All Other New Caledonia Ports","6412","New Caledonia","Latitude/Longitude Update",-21.35,165.95,"Official"
"722",64109,"Noumea","6412","New Caledonia","Latitude/Longitude Update",-22.26,166.434,"Official"
"723",64151,"Papeete, Tahiti","6414","French Polyn","Latitude/Longitude Update",-17.534,-149.5735,"Official"
"724",68651,"Nauru","6862","Nauru",NA,-0.53,166.907,"Official"
"725",68682,"All Tonga Islands Ports","6864","Tonga",NA,-19.87,-174.525,"Official"
"726",71401,"Casablanca","7140","Morocco",NA,33.61378,-7.61123,"Official"
"727",71403,"Agadir","7140","Morocco",NA,30.42078,-9.62928,"Official"
"728",71417,"Nador","7140","Morocco",NA,35.2771,-2.93031,"Official"
"729",71418,"Mohammedia","7140","Morocco",NA,33.71776,-7.38946,"Official"
"730",71419,"Saffi","7140","Morocco",NA,32.30793,-9.2427,"Official"
"731",71425,"Tangier","7140","Morocco",NA,35.79333,-5.78804,"Official"
"732",72105,"Arzew","7210","Algeria",NA,35.85,-0.3,"Official"
"733",72107,"Bejaia","7210","Algeria",NA,36.75118,5.07971,"Official"
"734",72123,"Annaba","7210","Algeria",NA,36.9166666666667,7.76666666666667,"Official"
"735",72142,"Ghazaouet","7210","Algeria",NA,35.1,-1.86666666666667,"Official"
"736",72179,"Oran","7210","Algeria",NA,35.7,-0.633333333333333,"Official"
"737",72189,"Skikda","7210","Algeria",NA,36.89048,6.90702,"Official"
"738",72301,"Banzart","7230","Tunisia",NA,37.2711,9.87361,"Official"
"739",72305,"Gabes","7230","Tunisia",NA,33.91768,10.10526,"Official"
"740",72310,"La Goulette","7230","Tunisia",NA,36.814,10.29845,"Official"
"741",72337,"Sfax","7230","Tunisia",NA,34.72924,10.76144,"Official"
"742",72373,"Tunis","7230","Tunisia",NA,36.8,10.28333,"Official"
"743",72501,"Benghazi","7250","Libya",NA,32.1001,20.04853,"Official"
"744",72515,"Marsa al Brega","7250","Libya",NA,30.41111,19.56,"Official"
"745",72912,"Damietta","7290","Egypt",NA,31.4385,31.82603,"Official"
"746",72913,"Port Said","7290","Egypt",NA,31.2432,32.30079,"Official"
"747",72932,"Ain Sukhna","7290","Egypt",NA,29.51954,32.39286,"Official"
"748",72949,"Suez","7290","Egypt",NA,30.58682,32.28937,"Official"
"749",73201,"Port Sudan","7320","Sudan",NA,19.61,37.228,"Official"
"750",73800,"All Other Equatorial Guinea Ports","7380","Equatorial Gui","Latitude/Longitude Update",2.06,9.57,"Official"
"751",73801,"Malabo","7380","Equatorial Gui","Latitude/Longitude Update",3.765,8.762,"Official"
"752",74100,"All Other Mauritania Ports","7410","Mauritania",NA,19.426,-16.85,"Official"
"753",74165,"Point Central","7410","Mauritania",NA,20.82,-17.032,"Official"
"754",74213,"Kribi","7420","Cameroon",NA,2.93003,9.90273,"Official"
"755",74298,"Victoria","7420","Cameroon",NA,5.27459,115.25283,"Official"
"756",74473,"Dakar","7440","Senegal",NA,14.683,-17.427,"Official"
"757",74619,"Conakri","7460","Guinea",NA,9.525,-13.717,"Alias"
"758",74625,"Kamsar","7460","Guinea",NA,10.647,-14.632,"Official"
"759",74751,"Freetown","7470","Sierra Leone",NA,8.497,-13.2115,"Official"
"760",74825,"Abidjan","7480","Cote d'Ivoire","Change",5.313,-4.025,"Official"
"761",74827,"San Pedro","7480","Cote d'Ivoire","Change",4.7415,-6.6155,"Official"
"762",74900,"All Other Ghana Ports","7490","Ghana","Latitude/Longitude Update",5.015,-1.575,"Official"
"763",74985,"Takoradi","7490","Ghana","Latitude/Longitude Update",4.895,-1.734,"Official"
"764",74990,"Tema","7490","Ghana","Latitude/Longitude Update",5.6165,0.011,"Official"
"765",75041,"Banjul","7500","Gambia",NA,13.442,-16.57,"Official"
"766",75200,"All Other Togo Ports","7520","Togo",NA,6.19,1.5,"Official"
"767",75291,"Lome","7520","Togo",NA,6.137,1.287,"Official"
"768",75330,"Calabar","7530","Nigeria",NA,4.95238,8.30933,"Official"
"769",75367,"Lagos","7530","Nigeria",NA,6.4,3.4,"Official"
"770",75385,"Okrika","7530","Nigeria",NA,4.71666666666667,7.08333333333333,"Official"
"771",75387,"Warri","7530","Nigeria",NA,5.50734,5.73296,"Official"
"772",75501,"Libreville","7550","Gabon","Latitude/Longitude Update",0.4007,9.4315,"Official"
"773",75521,"Owendo","7550","Gabon","Latitude/Longitude Update",0.283,9.51,"Official"
"774",75525,"Port Gentil","7550","Gabon","Latitude/Longitude Update",-0.73,8.797,"Official"
"775",76100,"All Other Benin ports","7610","Benin",NA,6.34,2.58,"Official"
"776",76101,"Cotonou","7610","Benin",NA,6.346,2.4295,"Official"
"777",76231,"Cabinda","7620","Angola",NA,-5.53986,12.18508,"Official"
"778",76274,"Lobito","7620","Angola",NA,-12.3589,13.54251,"Official"
"779",76278,"Luanda","7620","Angola",NA,-8.80406,13.23321,"Official"
"780",76279,"Namibe","7620","Angola",NA,-15.19487,12.14103,"Official"
"781",76281,"Soyo Oil Terminal","7620","Angola",NA,-6.3311,12.22934,"Official"
"782",76350,"Pointe Noire","7630","Congo Brazzaville",NA,-4.775,11.835,"Official"
"783",76465,"Mindelo","7643","Cape Verde",NA,16.898,24.997,"Official"
"784",76475,"Porto Praia","7643","Cape Verde",NA,14.91,-23.504,"Official"
"785",76489,"All Guinea-Bissau Ports","7642","Guinea Bissau",NA,11.857,-15.573,"Official"
"786",76491,"Sao Tome (St. Thomas)","7644","Sao Tome and Principe",NA,0.35,6.74,"Official"
"787",76499,"All Other Cape Verde Ports","7643","Cape Verde",NA,16,-24,"Official"
"788",76505,"Buchanan","7650","Liberia","Latitude/Longitude Update",5.858,-10.053,"Official"
"789",76529,"Monrovia","7650","Liberia","Latitude/Longitude Update",6.3475,-10.801,"Official"
"790",76637,"Matadi","7660","Congo Kinshasha",NA,-5.82,13.454,"Official"
"791",77000,"All Other Somalia Northern Region Ports","7700","Somalia","Latitude/Longitude Update",11.3,47.45,"Official"
"792",77001,"Berbera","7700","Somalia","Latitude/Longitude Update",10.442,44.997,"Official"
"793",77051,"Mogadishu","7700","Somalia","Latitude/Longitude Update",12.029,45.344,"Official"
"794",77099,"All Other Somalia Eastern Region Ports","7700","Somalia","Latitude/Longitude Update",0.829,43.944,"Official"
"795",77409,"Massaua","7741","Eritrea",NA,15.615,39.488,"Official"
"796",77701,"Djibouti","7770","Djibouti",NA,11.605,43.104,"Official"
"797",77913,"Mombasa","7790","Kenya",NA,-4.064,39.65,"Official"
"798",77999,"All Other Kenya Ports","7790","Kenya",NA,-3.43,40.05,"Official"
"799",78083,"Victoria","7800","Seychelles",NA,-4.635,55.485,"Official"
"800",78351,"Dar es Salaam","7830","Tanzania","Change",-6.82451,39.28946,"Official"
"801",78379,"Tanga","7830","Tanzania","Latitude/Longitude Update",-5.063,39.103,"Official"
"802",78387,"Zanzibar","7830","Tanzania","Latitude/Longitude Update",-6.1535,39.193,"Official"
"803",78501,"Port Louis","7850","Mauritius",NA,-20.15,57.487,"Official"
"804",78701,"Beira","7870","Mozambique","Latitude/Longitude Update",-19.815,34.833,"Official"
"805",78717,"Maputo","7870","Mozambique","Latitude/Longitude Update",-25.965,32.544,"Official"
"806",78735,"Nacala","7870","Mozambique","Latitude/Longitude Update",-15.541,40.663,"Official"
"807",78845,"Tamatave","7880","Madagascar",NA,-18.15223,49.4178,"Official"
"808",78900,"All Comoros Ports","7890","Comoros",NA,-12.05,43.8,"Official"
"809",79051,"Pointe des Galets","7904","Reunion",NA,-20.937,55.286,"Official"
"810",79101,"Cape Town","7910","South Africa",NA,-33.90904,18.46504,"Official"
"811",79113,"Durban","7910","South Africa",NA,-29.8666666666667,31.0666666666667,"Official"
"812",79125,"East London","7910","South Africa",NA,-33.02837,27.90904,"Official"
"813",79145,"Port Elizabeth","7910","South Africa",NA,-33.96138,25.64775,"Official"
"814",79155,"Richard's Bay","7910","South Africa",NA,-28.81667,32.08333,"Official"
"815",79286,"Walvis Baai","7920","Namibia",NA,-22.95,14.492,"Official"
"816",96165,"Saipan","9610","Northern Marian",NA,15.228,145.732,"Official"
"817",99930,"High Seas,Gulf of America","9990","Unknown",NA,27.2278105,-91.4304295,"Official"
