"","Schedule K Code","Foreign Port Name","Country Code","Country Name","Update","Latitude","Longitude","Official Port Name/Alias"
"1",1520,"Hamilton, ONT","1220","Canada",NA,43.25,-79.85,"Official"
"2",1527,"Clarkson, ONT","1220","Canada",NA,43.5,-79.6,"Official"
"3",1528,"Britt, ONT","1220","Canada",NA,45.7833,-80.6333,"Official"
"4",1530,"Lakeview, ONT","1220","Canada",NA,43.5667,-79.55,"Alias"
"5",1530,"Mississauga, ONT","1220","Canada",NA,43.5667,-79.55,"Alias"
"6",1530,"Port Credit, ONT","1220","Canada",NA,43.5667,-79.55,"Official"
"7",1535,"Toronto, ONT","1220","Canada",NA,43.61667,-79.38333,"Official"
"8",1652,"Picton, ONT","1220","Canada",NA,44.01667,-77.13333,"Official"
"9",1653,"Bath, ONT","1220","Canada",NA,44.18333,-76.76667,"Official"
"10",1670,"Kingston, ONT","1220","Canada",NA,44.23333,-76.5,"Official"
"11",1690,"Saint Catharines, ONT","1220","Canada",NA,43.18333,-79.28333,"Alias"
"12",1690,"St. Catharines, ONT","1220","Canada",NA,43.18333,-79.28333,"Official"
"13",1694,"Brockville, ONT","1220","Canada",NA,44.59828,-75.68043,"Official"
"14",1696,"Morrisburg, ONT","1220","Canada",NA,44.87,-75.2735,"Official"
"15",1697,"Rocky Point, ONT","1220","Canada",NA,48.385298,-86.582198,"Official"
"16",1700,"Port Johnstown, ONT","1220","Canada",NA,44.7,-75.51667,"Alias"
"17",1700,"Prescott, ONT","1220","Canada",NA,44.7,-75.51667,"Official"
"18",1705,"Cardinal, ONT","1220","Canada",NA,44.78333,-75.38333,"Official"
"19",1784,"Cornwall, ONT","1220","Canada",NA,45.01667,-74.73333,"Official"
"20",1806,"Beauharnois, QUE","1220","Canada",NA,45.31667,-73.883333,"Official"
"21",1807,"Tracy, QUE","1220","Canada",NA,45.996679,-73.176618,"Official"
"22",1822,"Montreal, QUE","1220","Canada",NA,45.51667,-73.55,"Official"
"23",1823,"Pointe aux Trembles, ONT","1220","Canada",NA,45.65,-73.5,"Official"
"24",1832,"Levis, QUE","1220","Canada",NA,46.8,-71.1833,"Official"
"25",2566,"Port Stanley, ONT","1220","Canada",NA,42.66667,-81.2,"Official"
"26",2641,"Cayuga, ONT","1220","Canada",NA,42.88333,-79.25,"Alias"
"27",2641,"Port Colborne, ONT","1220","Canada",NA,42.88333,-79.25,"Official"
"28",2643,"Rockport, ONT","1220","Canada",NA,44.38333,-75.933333,"Official"
"29",2645,"Dunnville, ONT","1220","Canada",NA,43,-79.25,"Alias"
"30",2645,"Welland, ONT","1220","Canada",NA,43,-79.25,"Official"
"31",2649,"Thorold, ONT","1220","Canada",NA,43.08333,-79.16667,"Official"
"32",3504,"Amherstburg, ONT","1220","Canada",NA,42.1,-83.1,"Official"
"33",3506,"Kingsville, ONT","1220","Canada",NA,42.01667,-82.73333,"Official"
"34",3507,"Pelee Island, ONT","1220","Canada",NA,41.81667,-82.666667,"Alias"
"35",3507,"Scudder, ONT","1220","Canada",NA,41.815208,-82.656304,"Official"
"36",3508,"Leamington, ONT","1220","Canada",NA,42.03333,-82.6,"Official"
"37",3510,"Ojibway, ONT","1220","Canada",NA,42.269121,-83.083945,"Official"
"38",3512,"Windsor, ONT","1220","Canada",NA,42.32464,-82.97231,"Official"
"39",5512,"Sombra, ONT","1220","Canada",NA,42.71667,-82.48333,"Official"
"40",5515,"Courtright, ONT","1220","Canada",NA,42.81667,-82.46667,"Alias"
"41",5515,"Lambton, ONT","1220","Canada",NA,42.81667,-82.46667,"Alias"
"42",5515,"Lampton, ONT","1220","Canada",NA,42.81667,-82.46667,"Official"
"43",5517,"Corunna, ONT","1220","Canada",NA,42.885244,-82.457697,"Official"
"44",5520,"Sarnia, ONT","1220","Canada",NA,42.98333,-82.41667,"Official"
"45",6533,"Goderich, ONT","1220","Canada",NA,43.75,-81.73333,"Official"
"46",6645,"Nanticoke, ONT","1220","Canada",NA,42.784,-80.159,"Official"
"47",6682,"Victoria Harbour, ONT","1220","Canada",NA,44.75,-79.816667,"Official"
"48",6695,"Depot Harbor, ONT","1220","Canada",NA,45.31667,-80.1,"Official"
"49",6697,"Parry Sound, ONT","1220","Canada",NA,45.33333,-80.03333,"Official"
"50",6748,"Little Current, ONT","1220","Canada",NA,45.967,-81.9167,"Official"
"51",6766,"Meldrum Bay, ONT","1220","Canada",NA,45.93333,-83.11667,"Official"
"52",6767,"Serpent Harbor, ONT","1220","Canada",NA,46.2,-82.656,"Alias"
"53",6767,"Spragge, ONT","1220","Canada",NA,46.2,-82.656,"Official"
"54",6768,"Owen Sound, ONT","1220","Canada",NA,44.58333,-80.93333,"Official"
"55",6770,"Oakville, ONT","1220","Canada",NA,43.43333,-79.66667,"Official"
"56",7238,"Ottawa, ONT","1220","Canada",NA,45.42737,-75.70659,"Official"
"57",8525,"Algoma, ONT","1220","Canada",NA,46.51667,-84.35,"Alias"
"58",8525,"Sault Ste. Marie, ONT","1220","Canada",NA,46.51667,-84.35,"Official"
"59",8525,"Soo, ONT","1220","Canada",NA,46.51667,-84.35,"Alias"
"60",8526,"Bruce Mines, ONT","1220","Canada",NA,46.28333,-83.783333,"Official"
"61",8527,"Thessalon, ONT","1220","Canada",NA,46.917,-55.4,"Official"
"62",8528,"Fisher Harbour, ONT","1220","Canada",NA,45.9833,-81.7333,"Official"
"63",8530,"Mitchell Bay, ONT","1220","Canada",NA,42.471996,-82.415435,"Official"
"64",9000,"All Other Canada Great Lakes Region Ports","1220","Canada",NA,47.654915,-85.288378,"Official"
"65",9000,"Bridgeburg, ONT","1220","Canada",NA,42.933234,-78.913734,"Alias"
"66",9000,"Grenville, ONT","1220","Canada",NA,45.632197,-74.606472,"Alias"
"67",9000,"Slate Islands, ONT","1220","Canada",NA,48.705921,-86.949325,"Alias"
"68",9000,"Wiarton, ONT","1220","Canada",NA,44.75,-81.133333,"Alias"
"69",9554,"Otter Island, ONT","1220","Canada",NA,45.001321,-79.841984,"Official"
"70",9555,"Michipicoten Harbor, ONT","1220","Canada",NA,47.96667,-84.9,"Official"
"71",9555,"Michipicoten, ONT","1220","Canada",NA,47.96667,-84.9,"Alias"
"72",9601,"Marathon, ONT","1220","Canada",NA,48.75,-86.3833,"Official"
"73",9602,"Fort Frances, ONT","1220","Canada",NA,48.628625,-93.357121,"Official"
"74",9605,"Walkerville, ONT","1220","Canada",NA,42.328207,-83.010461,"Official"
"75",9662,"Fort Williams, ONT","1220","Canada",NA,48.425,-89.225,"Alias"
"76",9662,"Port Arthur, ONT","1220","Canada",NA,48.425,-89.225,"Alias"
"77",9662,"Thunder Bay, ONT","1220","Canada",NA,48.425,-89.225,"Official"
"78",9663,"Port Weller, ONT","1220","Canada",NA,43.229,-79.20853,"Official"
"79",9665,"Bowmanville, ONT","1220","Canada",NA,43.91667,-78.71667,"Official"
"80",9667,"Whitefish River, ONT","1220","Canada",NA,48.287753,-89.817084,"Official"
"81",9669,"Heron Bay, ONT","1220","Canada",NA,48.65,-86.316667,"Official"
"82",9670,"Oshawa, ONT","1220","Canada",NA,43.86667,-78.81667,"Official"
"83",9671,"Port Whitby, ONT","1220","Canada",NA,43.85,-78.933333,"Alias"
"84",9671,"Whitby, ONT","1220","Canada",NA,43.84883,-78.933345,"Official"
"85",10100,"All Other Greenland","1010","Greenland",NA,63.3,-51.4,"Official"
"86",10100,"Frederikshaab","1010","Greenland",NA,61.995,-49.676,"Alias"
"87",10100,"Ivigtut","1010","Greenland",NA,61.208,-48.175,"Alias"
"88",10100,"Marmorilik","1010","Greenland",NA,71.129,-51.274,"Alias"
"89",10100,"Mesters Vig","1010","Greenland",NA,71.129,-23.89,"Alias"
"90",10100,"Mestersvig","1010","Greenland",NA,71.129,-23.89,"Alias"
"91",10100,"Tovkusoak","1010","Greenland",NA,64.866,-52.197,"Alias"
"92",10100,"Tovqussaq","1010","Greenland",NA,64.866,-52.197,"Alias"
"93",10101,"Thule","1010","Greenland",NA,77.464,-69.238,"Official"
"94",10102,"Faeringehavn","1010","Greenland",NA,63.697,-51.541,"Official"
"95",10104,"Godhavn","1010","Greenland","Change",69.248,-53.538,"Official"
"96",10106,"Holsteinsborg","1010","Greenland",NA,66.9409,-53.678,"Official"
"97",10108,"Jakobshavn","1010","Greenland",NA,69.2225,-51.0944,"Official"
"98",10110,"Julianchaab","1010","Greenland",NA,60.716,-46.0365,"Alias"
"99",10110,"Julianehaab","1010","Greenland",NA,60.716,-46.0365,"Alias"
"100",10110,"Qaqortoq","1010","Greenland",NA,60.716,-46.0365,"Official"
"101",10115,"Narsarsuak","1010","Greenland",NA,61.144,-45.436,"Alias"
"102",10115,"Narsarsuaq","1010","Greenland",NA,61.144,-45.436,"Official"
"103",10125,"Godthaab","1010","Greenland","Change",64.17,-51.715,"Official"
"104",10125,"Godthab","1010","Greenland","Change",64.17,-51.715,"Alias"
"105",12200,"All Other Canada Pacific Region Ports","1220","Canada",NA,51.408981,-128.996782,"Official"
"106",12200,"Butedale, BC","1220","Canada",NA,53.16667,-128.683333,"Alias"
"107",12200,"Dundas Island, BC","1220","Canada",NA,54.525356,-131.039556,"Alias"
"108",12200,"Esquimalt, BC","1220","Canada",NA,48.43333,-123.433333,"Alias"
"109",12200,"Hartley Bay, BC","1220","Canada",NA,53.416,-129.25,"Alias"
"110",12200,"Hartley, BC","1220","Canada",NA,53.416,-129.25,"Alias"
"111",12200,"Jackson Bay, BC","1220","Canada",NA,50.51667,-125.816667,"Alias"
"112",12200,"Maple Bay, BC","1220","Canada",NA,48.816147,-123.607786,"Alias"
"113",12200,"McBride Bay, BC","1220","Canada",NA,49.907153,-127.829312,"Alias"
"114",12200,"Nootka, BC","1220","Canada",NA,49.640195,-126.890076,"Alias"
"115",12200,"Porcher Island, BC","1220","Canada",NA,54.1305,-130.463937,"Alias"
"116",12200,"San Mateo, BC","1220","Canada",NA,48.942019,-124.988472,"Alias"
"117",12200,"South Pender Island, BC","1220","Canada",NA,48.744309,-123.23144,"Alias"
"118",12200,"Steveston, BC","1220","Canada",NA,46.917,-55.4,"Alias"
"119",12200,"White Rock, BC","1220","Canada",NA,49.016668,-122.806474,"Alias"
"120",12201,"Port McNeill, BC","1220","Canada",NA,50.595,-127.093,"Official"
"121",12202,"Port Alberni, BC","1220","Canada",NA,49.23333,-124.81667,"Official"
"122",12203,"Alert Bay, BC","1220","Canada",NA,50.58333,-126.933333,"Official"
"123",12204,"Port Clements, BC","1220","Canada",NA,53.68333,-132.183333,"Official"
"124",12205,"Sooke, BC","1220","Canada",NA,48.36667,-123.71667,"Official"
"125",12206,"Texada, BC","1220","Canada",NA,49.5,-124.5,"Official"
"126",12207,"Campbell River, BC","1220","Canada",NA,50.033,-125.25,"Official"
"127",12208,"Howie Sound, BC","1220","Canada",NA,49.68333,-123.16667,"Alias"
"128",12208,"Squamish, BC","1220","Canada",NA,49.68333,-123.16667,"Official"
"129",12208,"Twin Creeks, BC","1220","Canada",NA,49.68333,-123.16667,"Alias"
"130",12209,"Ladysmith, BC","1220","Canada",NA,48.98333,-123.78333,"Official"
"131",12210,"Masset, BC","1220","Canada",NA,54.03824,-132.14375,"Official"
"132",12211,"Port Hardy, BC","1220","Canada",NA,50.71667,-127.48333,"Official"
"133",12212,"Woodfibre, BC","1220","Canada",NA,49.66667,-123.25,"Official"
"134",12213,"Cape Beale, BC","1220","Canada",NA,48.780432,-125.202228,"Official"
"135",12214,"Blubber Bay, BC","1220","Canada",NA,49.8,-124.6167,"Official"
"136",12215,"Beale Cove, BC","1220","Canada",NA,49.7,-124.567,"Official"
"137",12216,"Bella Coola, BC","1220","Canada",NA,52.383,-126.75,"Official"
"138",12217,"Jervis Inlet, BC","1220","Canada",NA,49.7333,-124.25,"Official"
"139",12218,"Ucuelet, BC","1220","Canada",NA,48.95,-125.55,"Official"
"140",12219,"Sechelt, BC","1220","Canada",NA,49.47,-123.752698,"Official"
"141",12229,"Chemainus, BC","1220","Canada",NA,48.93333,-123.71667,"Official"
"142",12231,"Cowichan Bay, BC","1220","Canada",NA,48.75,-123.61667,"Official"
"143",12234,"Crofton, BC","1220","Canada",NA,48.86667,-123.63333,"Official"
"144",12237,"Elk Falls, BC","1220","Canada",NA,50.04854,-125.27593,"Official"
"145",12246,"Duncan Bay, BC","1220","Canada",NA,50.07398,-125.28057,"Official"
"146",12261,"Fraser River, BC","1220","Canada",NA,49.182198,-122.896803,"Official"
"147",12275,"Gold River, BC","1220","Canada",NA,49.6667,-126.1167,"Official"
"148",12287,"Kitimat, BC","1220","Canada",NA,54,-128.68333,"Official"
"149",12406,"Nanaimo, BC","1220","Canada",NA,49.16667,-123.93333,"Official"
"150",12407,"Harmac, BC","1220","Canada",NA,49.13333,-123.85,"Official"
"151",12408,"New Westminster, BC","1220","Canada",NA,49.2,-122.91667,"Official"
"152",12420,"Port Edward, BC","1220","Canada",NA,43.55,-79.58333,"Official"
"153",12420,"Watson Island, BC","1220","Canada",NA,43.55,-79.58333,"Alias"
"154",12422,"Port Alice, BC","1220","Canada",NA,50.38333,-127.45,"Official"
"155",12426,"Port Mann, BC","1220","Canada",NA,49.203487,-122.838732,"Official"
"156",12428,"Port Mellon, BC","1220","Canada",NA,49.51667,-123.48333,"Official"
"157",12430,"Port Moody, BC","1220","Canada",NA,49.28198,-122.86325,"Official"
"158",12441,"Powell River, BC","1220","Canada",NA,49.86667,-124.55,"Official"
"159",12442,"Prince Rupert, BC","1220","Canada",NA,54.31667,-130.33333,"Official"
"160",12444,"Port Simpson, BC","1220","Canada",NA,54.56667,-130.433333,"Official"
"161",12468,"Sidney, BC","1220","Canada",NA,48.65,-123.38333,"Official"
"162",12475,"Stanovan, BC","1220","Canada",NA,49.292325,-123.003543,"Official"
"163",12478,"Stewart, BC","1220","Canada",NA,55.93333,-130,"Official"
"164",12482,"Tahsis, BC","1220","Canada",NA,49.91667,-126.66667,"Official"
"165",12488,"Whonnock, BC","1220","Canada",NA,49.171402,-122.466634,"Official"
"166",12489,"Robert's Bank, BC","1220","Canada",NA,49.033333,-123.15,"Official"
"167",12490,"Mission, BC","1220","Canada",NA,49.11667,-122.25,"Official"
"168",12491,"Union Bay, BC","1220","Canada",NA,49.586683,-124.882112,"Official"
"169",12492,"Van Anda, BC","1220","Canada",NA,49.7667,-124.5,"Official"
"170",12493,"Gooch Island, BC","1220","Canada",NA,49.28333,-123.11667,"Alias"
"171",12493,"Vancouver, BC","1220","Canada",NA,49.28333,-123.11667,"Official"
"172",12494,"Ganges, BC","1220","Canada",NA,46.21667,-63.48333,"Alias"
"173",12494,"Victoria, BC","1220","Canada",NA,46.21667,-63.48333,"Official"
"174",12495,"Burnaby, BC","1220","Canada",NA,49.29305,-122.977727,"Official"
"175",12496,"Delta, BC","1220","Canada",NA,49.065869,-123.035962,"Official"
"176",12497,"Richmond, BC","1220","Canada",NA,49.167143,-123.118664,"Official"
"177",12498,"Oak Bay, BC","1220","Canada",NA,48.424255,-123.300009,"Official"
"178",13400,"All Other Canada Atlantic Region Ports","1220","Canada",NA,44.939533,-65.863144,"Official"
"179",13400,"Back Bay, NB","1220","Canada",NA,45.05481,-66.86232,"Alias"
"180",13400,"Bliss Harbor, NB","1220","Canada",NA,45.033437,-66.836528,"Alias"
"181",13400,"Bridgetown, NS","1220","Canada",NA,44.839683,-65.294285,"Alias"
"182",13400,"Deadmans Harbour, NB","1220","Canada",NA,45.049646,-66.775173,"Alias"
"183",13400,"Dipper Harbor, NB","1220","Canada",NA,45.1,-66.433,"Alias"
"184",13400,"Fox River, QUE","1220","Canada",NA,49,-64.383333,"Alias"
"185",13400,"Maces Bay, NB","1220","Canada",NA,45.09226,-66.476621,"Alias"
"186",13400,"Red Head, NB","1220","Canada",NA,45.249408,-66.012581,"Alias"
"187",13400,"Sandy Cove, NS","1220","Canada",NA,44.48508,-66.089387,"Alias"
"188",13400,"Spences Island, NS","1220","Canada",NA,45.333,-64.7,"Alias"
"189",13400,"Wilsons Beach, NB","1220","Canada",NA,44.933072,-66.941522,"Alias"
"190",13410,"Cacouna, QUE","1220","Canada",NA,47.929467,-69.530538,"Official"
"191",13420,"Digby, NS","1220","Canada",NA,44.617,-65.767,"Official"
"192",13420,"Port of Digby, NS","1220","Canada",NA,44.621818,-65.75123,"Alias"
"193",13430,"Port Maitland, NS","1220","Canada",NA,42.85,-79.583333,"Official"
"194",13435,"Beaver Harbour, NB","1220","Canada",NA,44.883,-62.383,"Official"
"195",13436,"Mulgrave, NS","1220","Canada",NA,45.616,-61.383,"Official"
"196",13437,"Louisburg, NS","1220","Canada",NA,45.91667,-59.96667,"Official"
"197",13441,"Becancour, QUE","1220","Canada",NA,46.39286,-72.37942,"Official"
"198",13442,"Belledune, NB","1220","Canada",NA,45.9,-65.867,"Official"
"199",13444,"Campbellton, NB","1220","Canada",NA,47.99916,-66.695,"Official"
"200",13445,"Campobello, NB","1220","Canada",NA,44.883,-66.866,"Alias"
"201",13445,"Chance Harbor, NB","1220","Canada",NA,44.883,-66.866,"Official"
"202",13450,"Blacks Harbour, NB","1220","Canada",NA,45.05,-66.8,"Official"
"203",13451,"Clarke Harbour, NS","1220","Canada",NA,43.45,-65.633,"Official"
"204",13451,"Clarke's Harbour, NS","1220","Canada",NA,43.45,-65.633,"Alias"
"205",13452,"Gold River, NS","1220","Canada",NA,49.65976,-126.1221,"Official"
"206",13453,"La Malbaie, QUE","1220","Canada",NA,47.6234,-70.1385,"Official"
"207",13453,"Murray Bay, QUE","1220","Canada",NA,47.6234,-70.1385,"Alias"
"208",13454,"Richardson, NB","1220","Canada",NA,49.171472,-122.470326,"Official"
"209",13455,"Shelburne, NS","1220","Canada",NA,43.767,-65.317,"Official"
"210",13456,"Victoria, PEI","1220","Canada",NA,46.21667,-63.483333,"Official"
"211",13457,"Welshpool, NB","1220","Canada",NA,44.889,-66.955,"Official"
"212",13458,"Bathurst, NB","1220","Canada",NA,47.61667,-65.65,"Official"
"213",13459,"Bayside, NB","1220","Canada",NA,45.133,-67.116,"Official"
"214",13460,"Chatham, NB","1220","Canada",NA,47.03333,-65.46667,"Official"
"215",13466,"Chandler, QUE","1220","Canada",NA,48.36667,-64.66667,"Official"
"216",13470,"Tuktoyaktuk, NWT","1220","Canada",NA,69.45,-133,"Official"
"217",13473,"Chicoutimi, QUE","1220","Canada",NA,48.43333,-71.06667,"Official"
"218",13475,"Deer Island, NB","1220","Canada",NA,44.963051,-67.007138,"Official"
"219",13476,"Clarke City, QUE","1220","Canada",NA,50.18541,-66.63263,"Alias"
"220",13476,"Pointe Noire, QUE","1220","Canada",NA,50.16667,-66.483333,"Official"
"221",13481,"Baie Comeau, QUE","1220","Canada",NA,49.23333,-68.13333,"Alias"
"222",13481,"Comeau Bay, QUE","1220","Canada",NA,49.23333,-68.13333,"Official"
"223",13482,"Contrecoeur, QUE","1220","Canada",NA,45.88465,-73.21998,"Official"
"224",13484,"Dalhousie, NB","1220","Canada",NA,48.066,-66.383,"Official"
"225",13485,"Dartmouth, NS","1220","Canada",NA,44.6667,-63.5667,"Official"
"226",13493,"Donnacona, QUE","1220","Canada",NA,46.666667,-71.75,"Official"
"227",13819,"Gaspe, QUE","1220","Canada",NA,48.83333,-64.48333,"Official"
"228",13820,"Gros Cacouna, QUE","1220","Canada",NA,47.933,-69.516,"Official"
"229",13820,"Groscacouna, QUE","1220","Canada",NA,47.933,-69.516,"Alias"
"230",13829,"Boca Sec, NB","1220","Canada",NA,44.75,-66.66667,"Alias"
"231",13829,"Grand Harbor, NB","1220","Canada",NA,44.75,-66.66667,"Official"
"232",13829,"Grand Manan Island, NB","1220","Canada",NA,44.75,-66.66667,"Alias"
"233",13829,"Seal Cove, NB","1220","Canada",NA,44.75,-66.66667,"Alias"
"234",13829,"Seelys Basin, NB","1220","Canada",NA,44.75,-66.66667,"Alias"
"235",13829,"Seelys Cove, NB","1220","Canada",NA,44.75,-66.66667,"Alias"
"236",13829,"Seelys Head, NB","1220","Canada",NA,44.75,-66.66667,"Alias"
"237",13829,"Woodwards Cove, NB","1220","Canada",NA,44.75,-66.66667,"Alias"
"238",13841,"Halifax, NS","1220","Canada",NA,44.65,-63.6,"Official"
"239",13846,"Auld's Cove, NS","1220","Canada",NA,45.65,-61.45,"Official"
"240",13847,"Yarmouth, NS","1220","Canada",NA,43.83333,-66.11667,"Official"
"241",13848,"Hantsport, NS","1220","Canada",NA,45.066,-64.166,"Official"
"242",13849,"Port Hawkesbury, NS","1220","Canada",NA,45.61667,-61.36667,"Official"
"243",13850,"Bridgewater, NS","1220","Canada",NA,44.36638,-64.48712,"Official"
"244",13851,"Lunenburg, NS","1220","Canada",NA,44.55,-64.316,"Official"
"245",13852,"Sydney, NS","1220","Canada",NA,46.15,-60.2,"Official"
"246",13853,"North Sydney, NS","1220","Canada",NA,46.21667,-60.25,"Official"
"247",13854,"Pictou, NS","1220","Canada",NA,45.66667,-62.71667,"Official"
"248",13855,"Baddeck, NS","1220","Canada",NA,46.11388,-60.74748,"Official"
"249",13870,"Meteghan, NS","1220","Canada",NA,44.216,-66.15,"Official"
"250",13884,"Little Narrows, NS","1220","Canada",NA,45.98333,-61,"Official"
"251",13887,"Liverpool, NS","1220","Canada",NA,44.03333,-64.716,"Official"
"252",13888,"Sheet Harbour, NS","1220","Canada",NA,44.9,-62.5,"Official"
"253",14001,"Churchill, MAN","1220","Canada",NA,58.78333,-94.18333,"Official"
"254",14021,"Mont Louis, QUE","1220","Canada",NA,49.2269,-65.72871,"Official"
"255",14037,"Newcastle, NB","1220","Canada",NA,47,-65.56667,"Official"
"256",14065,"Point Tupper, NS","1220","Canada",NA,45.611876,-61.378568,"Official"
"257",14066,"Pointe Au Pic, QUE","1220","Canada",NA,47.633,-70.15,"Official"
"258",14067,"Valleyfield, QUE","1220","Canada",NA,45.225,-74.0917,"Official"
"259",14068,"Rimouski, QUE","1220","Canada",NA,48.45,-68.51667,"Official"
"260",14069,"Port Alfred, QUE","1220","Canada",NA,48.3333,-70.8667,"Official"
"261",14070,"Matane, QUE","1220","Canada",NA,48.85,-67.53333,"Official"
"262",14073,"Port Cartier, QUE","1220","Canada",NA,50.03333,-66.78333,"Official"
"263",14090,"St. Romuald, QUE","1220","Canada",NA,46.760151,-71.246944,"Official"
"264",14092,"Sillery, QUE","1220","Canada",NA,46.763393,-71.25302,"Official"
"265",14094,"Quebec, QUE","1220","Canada",NA,46.81667,-71.21667,"Official"
"266",14095,"Rupert Inlet, QUE","1220","Canada",NA,59.604196,-134.199593,"Official"
"267",14426,"Saint Andrews, NB","1220","Canada",NA,45.08333,-67.06667,"Official"
"268",14426,"St. Andrews, NB","1220","Canada",NA,45.08333,-67.06667,"Alias"
"269",14427,"Saint George, NB","1220","Canada",NA,45.133,-66.9057,"Official"
"270",14428,"Saint John, NB","1220","Canada",NA,45.267,-66.05,"Official"
"271",14429,"Saint Jean, QUE","1220","Canada",NA,47.57139,-52.70616,"Alias"
"272",14429,"Saint Johns, QUE","1220","Canada",NA,47.57139,-52.70616,"Official"
"273",14438,"Saint Stephen, NB","1220","Canada",NA,45.2,-67.283,"Official"
"274",14444,"Sept Iles, QUE","1220","Canada",NA,50.2,-66.38333,"Alias"
"275",14444,"Seven Islands, QUE","1220","Canada",NA,50.2,-66.38333,"Official"
"276",14466,"Sorel, QUE","1220","Canada",NA,46.05,-73.11667,"Official"
"277",14467,"Souris, PEI","1220","Canada",NA,46.35,-62.25,"Official"
"278",14470,"Summerside, PEI","1220","Canada",NA,46.4,-63.78333,"Official"
"279",14471,"Charlottetown, PEI","1220","Canada",NA,46.23333,-63.13333,"Official"
"280",14472,"Montague, PEI","1220","Canada",NA,46.166,-62.65,"Official"
"281",14474,"Three Rivers, QUE","1220","Canada",NA,46.35,-72.55,"Official"
"282",14474,"Trois Rivieres, QUE","1220","Canada",NA,46.35,-72.55,"Alias"
"283",15200,"All Other Newfoundland Ports","1220","Canada",NA,46.626166,-54.750296,"Official"
"284",15200,"Bonavista, NFLD","1220","Canada",NA,48.65,-53.116667,"Alias"
"285",15200,"Burgeo, NFLD","1220","Canada",NA,47.6,-57.616667,"Alias"
"286",15200,"Witless Bay, NFLD","1220","Canada",NA,47.2776,-52.8265,"Alias"
"287",15201,"Bull Arm, NFLD","1220","Canada",NA,47.82,-53.892962,"Alias"
"288",15201,"Hibernia, NFLD","1220","Canada",NA,46.7667,-48.8667,"Official"
"289",15205,"Bay Roberts, NFLD","1220","Canada",NA,47.58805,-53.27596,"Official"
"290",15206,"Carbonear, NFLD","1220","Canada",NA,47.74149,-53.20459,"Official"
"291",15207,"Englee Harbor, NFLD","1220","Canada",NA,50.712901,-56.090335,"Official"
"292",15208,"Fortune, NFLD","1220","Canada",NA,47.066,-55.833,"Official"
"293",15209,"Grand Bank, NFLD","1220","Canada",NA,47.10412,-55.76699,"Official"
"294",15210,"Harbour Breton, NFLD","1220","Canada",NA,47.483,-55.8,"Official"
"295",15211,"Ramea, NFLD","1220","Canada",NA,47.516,-57.383,"Official"
"296",15212,"Saint Anthony, NFLD","1220","Canada",NA,51.36667,-55.583333,"Official"
"297",15212,"St. Anthony, NFLD","1220","Canada",NA,51.36667,-55.583333,"Alias"
"298",15213,"Argentia, NFLD","1220","Canada",NA,47.3,-53.98333,"Official"
"299",15214,"Botwood, NFLD","1220","Canada",NA,49.15,-55.33333,"Official"
"300",15220,"Conception Bay, NFLD","1220","Canada",NA,47.51495,-53.000322,"Official"
"301",15223,"Earls Island, NFLD","1220","Canada",NA,53.684552,-57.163474,"Official"
"302",15224,"Clarenville, NFLD","1220","Canada",NA,48.15,-53.95,"Official"
"303",15226,"Coley's Point, NFLD","1220","Canada",NA,47.583333,-53.266667,"Official"
"304",15229,"Come-by-Chance, NFLD","1220","Canada",NA,47.85,-53.983,"Official"
"305",15230,"Whiffen Head, NFLD","1220","Canada",NA,47.85,-53.983,"Official"
"306",15231,"Corner Brook, NFLD","1220","Canada",NA,48.95,-57.95,"Official"
"307",15232,"Harbour Grace, NFLD","1220","Canada",NA,47.68333,-53.21667,"Official"
"308",15233,"Marystown, NFLD","1220","Canada",NA,47.166,-5.515,"Official"
"309",15245,"Holyrood, NFLD","1220","Canada",NA,47.383,-53.133,"Official"
"310",15255,"Long Harbor, NFLD","1220","Canada",NA,47.433,-53.8,"Official"
"311",15260,"Long Pond Manuels, NFLD","1220","Canada",NA,47.667,-52.733,"Official"
"312",15282,"Saint John's, NFLD","1220","Canada",NA,47.567,-52.733,"Alias"
"313",15282,"St. John's, NFLD","1220","Canada",NA,47.567,-52.733,"Official"
"314",15283,"Saint Lawrence, NFLD","1220","Canada",NA,46.917,-55.4,"Official"
"315",15283,"St. Lawrence, NFLD","1220","Canada",NA,46.917,-55.4,"Alias"
"316",15285,"Stephenville, NFLD","1220","Canada",NA,48.51667,-58.53333,"Official"
"317",15298,"All Other Labrador Ports","1220","Canada",NA,63.08647,-67.275217,"Official"
"318",15298,"Baffin Island, NFLD","1220","Canada",NA,63.72969,-68.514238,"Alias"
"319",16101,"St. Pierre","1610","St. Pierre/Miq",NA,46.788,-56.16,"Official"
"320",20100,"Abryos","2010","Mexico",NA,NA,NA,"Alias"
"321",20100,"All Other Mexico West Coast Region Ports","2010","Mexico",NA,26.19245,-110.550914,"Official"
"322",20100,"Altata","2010","Mexico",NA,24.6166666666667,-107.916666666667,"Alias"
"323",20100,"Bahia Ballenas","2010","Mexico",NA,26.74,-113.4,"Alias"
"324",20100,"Bahia Tortugas","2010","Mexico",NA,27.689245,-114.890388,"Alias"
"325",20100,"Bahia de Todos Santos","2010","Mexico",NA,31.800273,-116.782529,"Alias"
"326",20100,"Ballenas Bay","2010","Mexico",NA,26.740227,-113.39936,"Alias"
"327",20100,"Cerralvo Island","2010","Mexico",NA,24.223638,-109.927475,"Alias"
"328",20100,"Clarion Island","2010","Mexico",NA,18.34364,-114.730894,"Alias"
"329",20100,"Costa Maya","2010","Mexico",NA,18.712947,-87.706945,"Alias"
"330",20100,"Culiacan","2010","Mexico",NA,24.45446,-107.800923,"Alias"
"331",20100,"Espiritu Santo","2010","Mexico",NA,24.406576,-107.733678,"Alias"
"332",20100,"Guadalupe Island","2010","Mexico",NA,29.017716,-118.340694,"Alias"
"333",20100,"Hermosillo","2010","Mexico",NA,28.543308,-111.898711,"Alias"
"334",20100,"Isla Maria Cleofas","2010","Mexico",NA,21.297472,-106.238096,"Alias"
"335",20100,"Isla Maria Madre","2010","Mexico",NA,21.635657,-106.530628,"Alias"
"336",20100,"Isla Maria Magdalena","2010","Mexico",NA,21.433681,-106.459593,"Alias"
"337",20100,"Isla Socorro","2010","Mexico",NA,18.744911,-111.013449,"Alias"
"338",20100,"Laguna San Ignacio","2010","Mexico",NA,26.872936,-113.171861,"Alias"
"339",20100,"Port Telzo","2010","Mexico",NA,NA,NA,"Alias"
"340",20100,"Puerto Angel","2010","Mexico",NA,15.65,-96.5166666666667,"Alias"
"341",20100,"Puerto San Quintin","2010","Mexico",NA,30.3833333333333,-116,"Alias"
"342",20100,"Punta Escondida","2010","Mexico",NA,15.85,-97.0833333333333,"Alias"
"343",20100,"Punta Prieta","2010","Mexico",NA,24.21667,-110.9067,"Alias"
"344",20100,"Punta San Juanico","2010","Mexico",NA,32.522059,-117.130676,"Alias"
"345",20100,"Punta Santo Tomas","2010","Mexico",NA,31.553064,-116.679069,"Alias"
"346",20100,"Punta Tosca","2010","Mexico",NA,24.3,-111.71,"Alias"
"347",20100,"San Blas","2010","Mexico",NA,21.5333333333333,-105.316666666667,"Alias"
"348",20100,"San Geronimo","2010","Mexico",NA,21.238032,-105.446757,"Alias"
"349",20100,"San Ignacio","2010","Mexico",NA,NA,NA,"Alias"
"350",20100,"San Jeronimo","2010","Mexico",NA,22.445307,-105.732716,"Alias"
"351",20100,"San Jose del Cabo","2010","Mexico",NA,23.05,-109.683333333333,"Alias"
"352",20100,"San Roque Island","2010","Mexico",NA,27.143746,-114.378519,"Alias"
"353",20100,"Santa Catarina","2010","Mexico",NA,25.190575,-97.25431,"Alias"
"354",20100,"Santo Tomas","2010","Mexico",NA,30.74636,-113.1557,"Alias"
"355",20100,"Santo Tomas Point","2010","Mexico",NA,30.74636,-113.1557,"Alias"
"356",20100,"Socorro Island","2010","Mexico",NA,18.762324,-110.910306,"Alias"
"357",20100,"Yavaros","2010","Mexico",NA,26.6833333333333,-109.5,"Alias"
"358",20101,"Acapulco","2010","Mexico",NA,16.85,-99.9333,"Official"
"359",20104,"Cerros Island","2010","Mexico",NA,28.056705,-115.159113,"Alias"
"360",20104,"Isla Cedros","2010","Mexico",NA,28.178594,-115.229283,"Alias"
"361",20104,"Morro Redondo","2010","Mexico",NA,28.039567,-115.180303,"Official"
"362",20104,"Pto. Venustiano Carranza","2010","Mexico",NA,NA,NA,"Alias"
"363",20104,"Puerto Morro Redondo","2010","Mexico",NA,28.05,-115.183333333333,"Alias"
"364",20105,"La Paz","2010","Mexico",NA,24.1667,-110.3167,"Official"
"365",20106,"Topolobampo","2010","Mexico",NA,25.6,-109.0667,"Official"
"366",20107,"Lazaro Cardenas","2010","Mexico",NA,17.9333,-102.1667,"Official"
"367",20108,"Ensenada","2010","Mexico",NA,31.8667,-116.6333,"Official"
"368",20113,"Guaymas","2010","Mexico",NA,27.9167,-110.9167,"Official"
"369",20120,"Manzanillo","2010","Mexico",NA,19.05,-104.3333,"Official"
"370",20122,"Mazatlan","2010","Mexico",NA,23.2,-106.4167,"Official"
"371",20125,"Rosarito","2010","Mexico",NA,32.3667,-117.0833,"Official"
"372",20128,"Islas Coronados","2010","Mexico",NA,32.42838,-117.233554,"Official"
"373",20129,"Salina Cruz","2010","Mexico",NA,16.1667,-95.2,"Official"
"374",20135,"San Marcos Island","2010","Mexico",NA,27.1833,-112.1,"Official"
"375",20141,"Santa Rosalia","2010","Mexico",NA,27.3333,-112.2833,"Official"
"376",20142,"El Sauzal","2010","Mexico",NA,31.9,-116.7,"Alias"
"377",20142,"Sauzal","2010","Mexico",NA,31.891305,-116.701333,"Official"
"378",20143,"Puerto Vallarta","2010","Mexico",NA,20.61014,-105.25279,"Official"
"379",20144,"Cabo San Lucas","2010","Mexico",NA,22.875,-109.9,"Official"
"380",20144,"San Lucas","2010","Mexico",NA,22.8833333333333,-109.9,"Alias"
"381",20152,"Cayo Arcas","2010","Mexico",NA,20.1667,-91.9833,"Alias"
"382",20152,"Cayo Arcas Terminal","2010","Mexico",NA,20.1667,-91.9833,"Official"
"383",20153,"Alvaro Obregon","2010","Mexico",NA,18.5833,-92.65,"Alias"
"384",20153,"Frontera","2010","Mexico",NA,18.530944,-92.655443,"Official"
"385",20154,"Dos Bocas","2010","Mexico",NA,18.61408,-93.1645,"Official"
"386",20155,"Campeche","2010","Mexico",NA,19.85,-90.55,"Official"
"387",20157,"Carmen","2010","Mexico",NA,18.6333,-91.8667,"Alias"
"388",20157,"Ciudad del Carmen","2010","Mexico",NA,18.6333,-91.8667,"Official"
"389",20157,"Laguna de Terminos","2010","Mexico",NA,18.6333,-91.8667,"Alias"
"390",20161,"Calica","2010","Mexico",NA,20.621527,-87.06938,"Official"
"391",20162,"Cancun","2010","Mexico",NA,21.13195,-86.7147,"Official"
"392",20171,"Coatzacoalcos","2010","Mexico",NA,18.15,-94.4167,"Official"
"393",20171,"Ostion","2010","Mexico",NA,18.15,-94.4167,"Alias"
"394",20171,"Pto. Libre de Pto Mexico","2010","Mexico",NA,18.15,-94.4167,"Alias"
"395",20171,"Puerto Mexico","2010","Mexico",NA,18.15,-94.4167,"Alias"
"396",20173,"Cozumel","2010","Mexico",NA,20.5083,-86.966666,"Official"
"397",20173,"Cozumel Island","2010","Mexico",NA,20.5083,-86.966666,"Alias"
"398",20173,"Punta Venado","2010","Mexico",NA,20.552,-87.154,"Alias"
"399",20174,"Chetumal","2010","Mexico",NA,18.49419,-88.27395,"Official"
"400",20174,"Mahahual","2010","Mexico",NA,18.49419,-88.27395,"Alias"
"401",20179,"Isla Mujeres","2010","Mexico",NA,21.2,-86.733,"Official"
"402",20181,"Minatitlan","2010","Mexico",NA,18,-94.5333,"Official"
"403",20184,"Pajaritos","2010","Mexico",NA,18.15,-94.4167,"Official"
"404",20185,"Progreso","2010","Mexico",NA,21.2833,-89.6667,"Official"
"405",20192,"Puerto Madero","2010","Mexico",NA,14.7,-92.45,"Official"
"406",20193,"Altamira","2010","Mexico",NA,22.75,-97.75,"Alias"
"407",20193,"Tampico","2010","Mexico",NA,22.24279,-97.82599,"Official"
"408",20194,"Puerto Morales","2010","Mexico",NA,20.834794,-86.871984,"Official"
"409",20194,"Puerto de Morales","2010","Mexico",NA,NA,NA,"Alias"
"410",20195,"All Other Mexico East Coast Region Ports","2010","Mexico",NA,20.199634,-94.931766,"Official"
"411",20195,"Champoton","2010","Mexico",NA,19.35,-90.725,"Alias"
"412",20195,"Ciudad Camargo","2010","Mexico",NA,26.358902,-109.569259,"Alias"
"413",20195,"Ciudad Chetumal","2010","Mexico",NA,18.49,-88.303585,"Alias"
"414",20195,"El Cuyo","2010","Mexico",NA,21.592,-87.667,"Alias"
"415",20195,"Gutierrez Zamorra","2010","Mexico",NA,20.500571,-96.940015,"Alias"
"416",20195,"Isla de Lobos","2010","Mexico",NA,21.47022,-97.22379,"Alias"
"417",20195,"Matamoros","2010","Mexico",NA,NA,NA,"Alias"
"418",20195,"Nautla","2010","Mexico",NA,20.215,-96.76,"Alias"
"419",20195,"Puerto Juarez","2010","Mexico",NA,21.2167,86.825,"Alias"
"420",20195,"Puerto Lobos","2010","Mexico",NA,30.268688,-112.850404,"Alias"
"421",20195,"Tecolutla","2010","Mexico",NA,20.475,-97,"Alias"
"422",20195,"Tlacotalpan","2010","Mexico",NA,18.6167,-95.65,"Alias"
"423",20195,"Xcalac","2010","Mexico",NA,18.2725,-87.8342,"Alias"
"424",20196,"Alvarado","2010","Mexico",NA,18.7833333333333,-95.7666666666667,"Official"
"425",20197,"Tuxpan","2010","Mexico",NA,20.96038,-97.4043,"Official"
"426",20199,"Veracruz","2010","Mexico",NA,19.2,-96.1333,"Official"
"427",20500,"All Other Guatemala Caribbean Region Ports","2050","Guatemala",NA,15.78,-88.65,"Official"
"428",20500,"Livingston","2050","Guatemala",NA,15.823,-88.748,"Alias"
"429",20505,"Puerto Matias de Galves","2050","Guatemala",NA,15.7,-88.615,"Alias"
"430",20505,"Santo Tomas","2050","Guatemala",NA,15.7,-88.615,"Alias"
"431",20505,"Santo Tomas de Castilla","2050","Guatemala",NA,15.7,-88.615,"Official"
"432",20506,"Puerto Quetzal","2050","Guatemala",NA,13.923,-90.79,"Official"
"433",20513,"Puerto Barrios","2050","Guatemala",NA,15.725,-88.606,"Alias"
"434",20513,"Quatema","2050","Guatemala",NA,15.736,-88.612,"Official"
"435",20577,"San Jose","2050","Guatemala",NA,13.913,-90.83,"Official"
"436",20599,"All Other Guatemala West Coast Region Ports","2050","Guatemala",NA,13.9,-91.25,"Official"
"437",20599,"Champerico","2050","Guatemala",NA,14.288,-91.915,"Alias"
"438",20599,"Iztapa","2050","Guatemala",NA,13.931,-90.709,"Alias"
"439",20800,"Other Belize Ports","2080","Belize","Latitude/Longitude Update",17.124,-88.242,"Official"
"440",20800,"Punta Gorda","2080","Belize","Latitude/Longitude Update",16.101,-88.8,"Alias"
"441",20800,"San Pedro","2080","Belize","Latitude/Longitude Update",17.9025,-87.974,"Alias"
"442",20801,"Belize","2080","Belize","Latitude/Longitude Update",17.475,-88.1995,"Official"
"443",20802,"Big Creek","2080","Belize","Latitude/Longitude Update",16.512,-88.404,"Official"
"444",20803,"Dangriga","2080","Belize","Latitude/Longitude Update",16.93,-88.235,"Alias"
"445",20803,"Stann Creek","2080","Belize","Latitude/Longitude Update",16.9687,-88.218,"Official"
"446",21101,"Acajutla","2110","El Salvador",NA,13.57766,-89.83746,"Official"
"447",21137,"Cutuco","2110","El Salvador",NA,13.336,-87.818,"Alias"
"448",21137,"La Union","2110","El Salvador",NA,13.344,-87.838,"Official"
"449",21199,"All Other El Salvador Ports","2110","El Salvador",NA,13.25,-89.05,"Official"
"450",21199,"La Libertad","2110","El Salvador",NA,13.482,-89.3185,"Alias"
"451",21199,"Puerto El Triunfo","2110","El Salvador",NA,13.266,-88.551,"Alias"
"452",21500,"All Other Honduras Caribbean Region Ports","2150","Honduras",NA,NA,NA,"Official"
"453",21500,"Isla Utila","2150","Honduras",NA,NA,NA,"Alias"
"454",21500,"Puerto Este","2150","Honduras",NA,16.0833333333333,-86.9,"Alias"
"455",21500,"Trujillo","2150","Honduras",NA,15.91667,-85.95,"Alias"
"456",21515,"La Ceiba","2150","Honduras",NA,15.76667,-86.833333,"Official"
"457",21515,"Utila Bay","2150","Honduras",NA,15.76423,-86.8313,"Alias"
"458",21519,"Limon","2150","Honduras",NA,9.99023,-83.03301,"Official"
"459",21527,"Puerto Castilla","2150","Honduras",NA,16.00576,-86.02316,"Official"
"460",21531,"Puerto Cortes","2150","Honduras",NA,15.82193,-87.93444,"Official"
"461",21535,"Guanaja","2150","Honduras",NA,16.4333333333333,-85.8833333333333,"Alias"
"462",21535,"Isla Roatan","2150","Honduras",NA,NA,NA,"Official"
"463",21535,"Roatan Island","2150","Honduras",NA,NA,NA,"Alias"
"464",21543,"Tela","2150","Honduras",NA,15.77406,-87.47554,"Official"
"465",21551,"Amapala","2150","Honduras",NA,13.40963,-87.4512,"Alias"
"466",21551,"San Lorenzo","2150","Honduras",NA,9.78333333333333,-71.0666666666667,"Official"
"467",21552,"Puerto Henecan","2150","Honduras",NA,13.4,-87.45,"Official"
"468",21599,"All Other Honduras West Coast Region Ports","2150","Honduras",NA,NA,NA,"Official"
"469",21900,"All Other Nicaragua Caribbean Region Ports","2190","Nicaragua",NA,NA,NA,"Official"
"470",21900,"Cabo Gracias a Dios","2190","Nicaragua",NA,15,-83.15,"Alias"
"471",21900,"Corn Islands","2190","Nicaragua",NA,NA,NA,"Alias"
"472",21900,"Huaunta","2190","Nicaragua",NA,NA,NA,"Alias"
"473",21900,"Islas de Maiz","2190","Nicaragua",NA,NA,NA,"Alias"
"474",21900,"La Barra de Rio Grande","2190","Nicaragua",NA,NA,NA,"Alias"
"475",21900,"Laguna de Perlas","2190","Nicaragua",NA,NA,NA,"Alias"
"476",21900,"Pearl City","2190","Nicaragua",NA,NA,NA,"Alias"
"477",21900,"Prinzapolca","2190","Nicaragua",NA,NA,NA,"Alias"
"478",21900,"Pto. Cabo Gracias a Dios","2190","Nicaragua",NA,NA,NA,"Alias"
"479",21900,"Puerto Isabel","2190","Nicaragua",NA,13.3666666666667,-83.5666666666667,"Alias"
"480",21900,"Punta Gorda","2190","Nicaragua",NA,NA,NA,"Alias"
"481",21900,"Rio Grande","2190","Nicaragua",NA,NA,NA,"Alias"
"482",21901,"Bluefields","2190","Nicaragua",NA,12.0166666666667,-83.75,"Official"
"483",21901,"El Bluff","2190","Nicaragua",NA,12,-83.7,"Alias"
"484",21902,"Arlen Siu","2190","Nicaragua",NA,NA,NA,"Alias"
"485",21902,"Rama","2190","Nicaragua",NA,NA,NA,"Official"
"486",21925,"Puerto Cabezas","2190","Nicaragua",NA,14.01631,-83.38555,"Official"
"487",21951,"Corinto","2190","Nicaragua",NA,12.47314,-87.17894,"Official"
"488",21999,"All Other Nicaragua West Coast Region Ports","2190","Nicaragua",NA,NA,NA,"Official"
"489",21999,"Puerto Masachapa","2190","Nicaragua",NA,11.7833333333333,-86.55,"Alias"
"490",21999,"Puerto Sandino","2190","Nicaragua",NA,12.1833333333333,-86.7833333333333,"Alias"
"491",21999,"San Juan del Sur","2190","Nicaragua",NA,11.25,-85.8833333333333,"Alias"
"492",21999,"Somoza","2190","Nicaragua",NA,NA,NA,"Alias"
"493",22300,"All Other Costa Rica Caribbean Region Ports","2230","Costa Rica",NA,NA,NA,"Official"
"494",22300,"Puerto Vargas","2230","Costa Rica",NA,NA,NA,"Alias"
"495",22301,"Colorado Bar","2230","Costa Rica",NA,NA,NA,"Official"
"496",22313,"Limon","2230","Costa Rica",NA,9.99023,-83.03301,"Official"
"497",22313,"Puerto Limon","2230","Costa Rica",NA,9.99023,-83.03301,"Alias"
"498",22315,"Bahia de Moin","2230","Costa Rica",NA,9.95295,-83.0248,"Official"
"499",22315,"Moin","2230","Costa Rica",NA,9.95295,-83.0248,"Alias"
"500",22361,"Caldera","2230","Costa Rica",NA,-27.06115,-70.82975,"Official"
"501",22363,"Golfito","2230","Costa Rica",NA,NA,NA,"Official"
"502",22363,"Puerto Golfito","2230","Costa Rica",NA,8.63333,-83.183333,"Alias"
"503",22381,"Punta Quepos","2230","Costa Rica",NA,9.42409,-84.16875,"Alias"
"504",22381,"Quepos","2230","Costa Rica",NA,9.42409,-84.16875,"Official"
"505",22386,"Punta Morales","2230","Costa Rica",NA,NA,NA,"Official"
"506",22387,"Puntarenas","2230","Costa Rica",NA,9.96533,-84.84445,"Official"
"507",22389,"Aguadulce","2230","Costa Rica",NA,NA,NA,"Official"
"508",22399,"All Other Costa Rica West Coast Region Ports","2230","Costa Rica",NA,NA,NA,"Official"
"509",22399,"Coco Islands","2230","Costa Rica",NA,NA,NA,"Alias"
"510",22399,"Golfo Dulce","2230","Costa Rica",NA,NA,NA,"Alias"
"511",22399,"Islas de Coco","2230","Costa Rica",NA,NA,NA,"Alias"
"512",22500,"All Other Panama Caribbean Region Ports","2250","Panama",NA,NA,NA,"Official"
"513",22500,"Bocas del Toro","2250","Panama",NA,9.33333333333333,-82.2333333333333,"Alias"
"514",22500,"Gamboa","2250","Panama",NA,NA,NA,"Alias"
"515",22500,"Gatun","2250","Panama",NA,NA,NA,"Alias"
"516",22500,"Mindi Dyke","2250","Panama",NA,NA,NA,"Alias"
"517",22500,"Nombre de Dios","2250","Panama",NA,NA,NA,"Alias"
"518",22501,"Almirante","2250","Panama",NA,9.28606,-82.39493,"Official"
"519",22517,"Coco Solo","2250","Panama",NA,NA,NA,"Official"
"520",22518,"Cristobal","2250","Panama",NA,9.34702,-79.9053,"Official"
"521",22519,"Colon","2250","Panama",NA,9.35321,-79.90609,"Official"
"522",22519,"Panama Canal - Caribbean","2250","Panama",NA,9.35321,-79.90609,"Alias"
"523",22520,"Chiriqui Grande Terminal","2250","Panama",NA,8.92764,-82.11179,"Alias"
"524",22520,"Laguna de Chiriqui","2250","Panama",NA,8.92764,-82.11179,"Official"
"525",22525,"Golfo de Parita","2250","Panama",NA,NA,NA,"Alias"
"526",22525,"Parita","2250","Panama",NA,NA,NA,"Official"
"527",22555,"Portobelo","2250","Panama",NA,9.55,-79.6666666666667,"Official"
"528",22555,"Puerto Bello","2250","Panama",NA,NA,NA,"Alias"
"529",22556,"Manzanillo","2250","Panama",NA,9.392454,-79.116667,"Official"
"530",22556,"Puerto Manzanillo","2250","Panama",NA,9.392454,-79.116667,"Alias"
"531",22565,"Bahia de Las Minas","2250","Panama",NA,9.4,-79.8166666666667,"Alias"
"532",22565,"Las Minas Bay","2250","Panama",NA,NA,NA,"Official"
"533",22565,"Payardi","2250","Panama",NA,NA,NA,"Alias"
"534",22575,"Balboa","2250","Panama",NA,8.96015,-79.56131,"Official"
"535",22577,"La Palma","2250","Panama",NA,8.22405,-78.00381,"Official"
"536",22579,"Panama Canal- Pacific","2250","Panama",NA,8.95,-79.53333,"Alias"
"537",22579,"Panama City","2250","Panama",NA,8.95,-79.53333,"Official"
"538",22581,"Aguadulce","2250","Panama",NA,8.23333,-80.5,"Official"
"539",22582,"Pedregal","2250","Panama",NA,8.36877,-82.43189,"Official"
"540",22587,"Armuelles","2250","Panama",NA,8.27723,-82.85814,"Official"
"541",22587,"Charco Azul","2250","Panama",NA,8.27723,-82.85814,"Alias"
"542",22587,"Puerto Armuelles","2250","Panama",NA,8.27723,-82.85814,"Alias"
"543",22599,"All Other Panama West Coast Region Ports","2250","Panama",NA,NA,NA,"Official"
"544",22599,"Archipel. de Las Perlas","2250","Panama",NA,NA,NA,"Alias"
"545",22599,"Bruja Point","2250","Panama",NA,NA,NA,"Alias"
"546",22599,"Chiman","2250","Panama",NA,NA,NA,"Alias"
"547",22599,"Darien","2250","Panama",NA,NA,NA,"Alias"
"548",22599,"David","2250","Panama",NA,NA,NA,"Alias"
"549",22599,"El Real","2250","Panama",NA,NA,NA,"Alias"
"550",22599,"Golfo de San Miguel","2250","Panama",NA,NA,NA,"Alias"
"551",22599,"Isla Parida","2250","Panama",NA,8.11666666666667,-82.35,"Alias"
"552",22599,"Miraflores Locks","2250","Panama",NA,NA,NA,"Alias"
"553",22599,"Paraiso","2250","Panama",NA,NA,NA,"Alias"
"554",22599,"Parida Island","2250","Panama",NA,NA,NA,"Alias"
"555",22599,"Pearl Islands","2250","Panama",NA,NA,NA,"Alias"
"556",22599,"Point Bruja","2250","Panama",NA,NA,NA,"Alias"
"557",22599,"Point Mala","2250","Panama",NA,NA,NA,"Alias"
"558",22599,"Punta Mala","2250","Panama",NA,NA,NA,"Alias"
"559",22599,"Rio Hato","2250","Panama",NA,NA,NA,"Alias"
"560",22599,"Rodman","2250","Panama",NA,NA,NA,"Alias"
"561",22599,"San Miguel Gulf","2250","Panama",NA,NA,NA,"Alias"
"562",22599,"Taboga Island","2250","Panama",NA,NA,NA,"Alias"
"563",22599,"Tonosi","2250","Panama",NA,NA,NA,"Alias"
"564",22599,"Vacamonte","2250","Panama",NA,NA,NA,"Alias"
"565",23201,"Hamilton","2320","Bermuda",NA,32.291,-64.782,"Official"
"566",23251,"Saint Georges","2320","Bermuda",NA,32.375,-64.68,"Alias"
"567",23251,"St. Georges","2320","Bermuda",NA,32.375,-64.68,"Official"
"568",23299,"All Other Bermuda Ports","2320","Bermuda",NA,32.325,-64.774,"Official"
"569",23299,"Freeport, Ireland Island","2320","Bermuda",NA,32.3215,-64.836,"Alias"
"570",23600,"All Other Bahamas Ports","2360","Bahamas",NA,NA,NA,"Official"
"571",23600,"Browns Cays","2360","Bahamas",NA,NA,NA,"Alias"
"572",23600,"Fresh Creek","2360","Bahamas",NA,NA,NA,"Alias"
"573",23600,"Mayaguana Island","2360","Bahamas",NA,NA,NA,"Alias"
"574",23600,"San Salvador","2360","Bahamas",NA,NA,NA,"Alias"
"575",23600,"Whale Cay","2360","Bahamas",NA,NA,NA,"Alias"
"576",23619,"Eleuthera Island","2360","Bahamas",NA,NA,NA,"Official"
"577",23619,"Harbour Island","2360","Bahamas",NA,NA,NA,"Alias"
"578",23620,"Cat Cay","2360","Bahamas",NA,NA,NA,"Official"
"579",23621,"Exuma","2360","Bahamas",NA,NA,NA,"Official"
"580",23622,"Spanish Wells","2360","Bahamas",NA,NA,NA,"Official"
"581",23623,"Governor's Harbour","2360","Bahamas",NA,NA,NA,"Official"
"582",23624,"Half Moon Cay","2360","Bahamas",NA,NA,NA,"Official"
"583",23630,"Arawak Cay","2360","Bahamas",NA,NA,NA,"Official"
"584",23635,"Clarence Town","2360","Bahamas",NA,NA,NA,"Official"
"585",23635,"Long Island","2360","Bahamas",NA,NA,NA,"Alias"
"586",23636,"Duncan Town","2360","Bahamas",NA,NA,NA,"Alias"
"587",23636,"Ragged Island","2360","Bahamas",NA,NA,NA,"Official"
"588",23640,"Abaco-Snake Cay","2360","Bahamas",NA,NA,NA,"Alias"
"589",23640,"Cherokee Sound","2360","Bahamas",NA,NA,NA,"Alias"
"590",23640,"Coco Cay","2360","Bahamas",NA,NA,NA,"Alias"
"591",23640,"Gorda Cay","2360","Bahamas",NA,NA,NA,"Alias"
"592",23640,"Great Abaco Island","2360","Bahamas",NA,NA,NA,"Official"
"593",23640,"Green Turtle Cay","2360","Bahamas",NA,NA,NA,"Alias"
"594",23640,"Marsh Harbour","2360","Bahamas",NA,NA,NA,"Alias"
"595",23641,"Chub Cay","2360","Bahamas",NA,NA,NA,"Official"
"596",23642,"Great Stirrup Cay","2360","Bahamas",NA,NA,NA,"Official"
"597",23643,"Great Harbour Cay","2360","Bahamas",NA,NA,NA,"Official"
"598",23644,"Treasure Cay","2360","Bahamas",NA,NA,NA,"Official"
"599",23645,"Freeport, Grand Bahama I","2360","Bahamas",NA,NA,NA,"Official"
"600",23645,"South Riding Point","2360","Bahamas",NA,26.6166666666667,-78.2166666666667,"Alias"
"601",23646,"Port Lucaya","2360","Bahamas",NA,NA,NA,"Official"
"602",23647,"West End","2360","Bahamas",NA,NA,NA,"Official"
"603",23650,"Port Nelson","2360","Bahamas",NA,NA,NA,"Alias"
"604",23650,"Rum Cay","2360","Bahamas",NA,NA,NA,"Official"
"605",23653,"Great Inagua","2360","Bahamas",NA,NA,NA,"Official"
"606",23653,"Matthew Town","2360","Bahamas",NA,20.95,-73.6833333333333,"Alias"
"607",23660,"Cat Island","2360","Bahamas",NA,NA,NA,"Official"
"608",23661,"Nassau, New Providence I","2360","Bahamas",NA,25.07712,-77.3337,"Official"
"609",23665,"Ocean Cay","2360","Bahamas",NA,25.545736,-79.271728,"Official"
"610",23667,"Walker Cay","2360","Bahamas",NA,NA,NA,"Official"
"611",23672,"Andros Island","2360","Bahamas",NA,NA,NA,"Official"
"612",23672,"Port Andros","2360","Bahamas",NA,NA,NA,"Alias"
"613",23675,"Clifton Pier","2360","Bahamas",NA,25.01203,-77.55969,"Alias"
"614",23675,"Clifton Point","2360","Bahamas",NA,25.01203,-77.55969,"Official"
"615",23683,"Bimini Island","2360","Bahamas",NA,25.73333,-79.25,"Official"
"616",23683,"Gun Cay","2360","Bahamas",NA,NA,NA,"Alias"
"617",23684,"Castaway Cay","2360","Bahamas",NA,NA,NA,"Official"
"618",23900,"All Other Cuba Ports","2390","Cuba",NA,NA,NA,"Official"
"619",23900,"Antilla","2390","Cuba",NA,20.8333333333333,-75.7333333333333,"Alias"
"620",23900,"Bahia Honda","2390","Cuba",NA,22.9666666666667,-83.1666666666667,"Alias"
"621",23900,"Bahia Sama","2390","Cuba",NA,21.11667,-75.766667,"Alias"
"622",23900,"Bahia de Nuevitas","2390","Cuba",NA,NA,NA,"Alias"
"623",23900,"Banes","2390","Cuba",NA,20.9166666666667,-75.7,"Alias"
"624",23900,"Baracoa","2390","Cuba",NA,20.35,-74.5,"Alias"
"625",23900,"Cabanas","2390","Cuba",NA,23,-82.9666666666667,"Alias"
"626",23900,"Cabo Cruz","2390","Cuba",NA,NA,NA,"Alias"
"627",23900,"Caibarien","2390","Cuba",NA,22.5333333333333,-79.4666666666667,"Alias"
"628",23900,"Cape Cruz","2390","Cuba",NA,NA,NA,"Alias"
"629",23900,"Cardenas","2390","Cuba",NA,23.05,-81.2,"Alias"
"630",23900,"Casilda","2390","Cuba",NA,21.75,-79.9833333333333,"Alias"
"631",23900,"Cayo Santa Maria","2390","Cuba",NA,NA,NA,"Alias"
"632",23900,"Ceiba Hueca","2390","Cuba",NA,20.2166666666667,-77.3166666666667,"Alias"
"633",23900,"Chaparra","2390","Cuba",NA,NA,NA,"Alias"
"634",23900,"Cienfuegos","2390","Cuba",NA,22.15,-80.45,"Alias"
"635",23900,"Ensenada Santa Maria","2390","Cuba",NA,21.26667,-78.516667,"Alias"
"636",23900,"Ensenda de Mora","2390","Cuba",NA,NA,NA,"Alias"
"637",23900,"Gibara","2390","Cuba",NA,21.1166666666667,-76.1166666666667,"Alias"
"638",23900,"Isla de Pinos","2390","Cuba",NA,NA,NA,"Alias"
"639",23900,"Isle of Pines","2390","Cuba",NA,NA,NA,"Alias"
"640",23900,"Jucaro","2390","Cuba",NA,21.6166666666667,-78.85,"Alias"
"641",23900,"Manati","2390","Cuba",NA,21.4,-76.8,"Alias"
"642",23900,"Manzanillo","2390","Cuba",NA,20.35,-77.1166666666667,"Alias"
"643",23900,"Maravi","2390","Cuba",NA,NA,NA,"Alias"
"644",23900,"Mariel","2390","Cuba",NA,22.9833333333333,-82.75,"Alias"
"645",23900,"Matahambre","2390","Cuba",NA,NA,NA,"Alias"
"646",23900,"Matanzas","2390","Cuba",NA,23.05,-81.55,"Alias"
"647",23900,"Mayari","2390","Cuba",NA,NA,NA,"Alias"
"648",23900,"Media Luna","2390","Cuba",NA,20.15,-77.4333333333333,"Alias"
"649",23900,"Minas de Matahambre","2390","Cuba",NA,NA,NA,"Alias"
"650",23900,"Moa","2390","Cuba",NA,20.6666666666667,-74.9,"Alias"
"651",23900,"Niguero","2390","Cuba",NA,NA,NA,"Alias"
"652",23900,"Nuevitas","2390","Cuba",NA,21.55,-77.266667,"Alias"
"653",23900,"Palo Alto","2390","Cuba",NA,21.6,-78.9666666666667,"Alias"
"654",23900,"Pilon Harbor","2390","Cuba",NA,NA,NA,"Alias"
"655",23900,"Port Tarafa","2390","Cuba",NA,NA,NA,"Alias"
"656",23900,"Pto. Cayo Grande de Moa","2390","Cuba",NA,NA,NA,"Alias"
"657",23900,"Puerto Padre","2390","Cuba",NA,21.2833333333333,-76.5333333333333,"Alias"
"658",23900,"Puerto Tarafa","2390","Cuba",NA,NA,NA,"Alias"
"659",23900,"Puerto Vita","2390","Cuba",NA,21.0833333333333,-75.95,"Alias"
"660",23900,"Punta Gorda","2390","Cuba",NA,20.63333,-74.85,"Alias"
"661",23900,"San Ramon","2390","Cuba",NA,20.21667,-77.366667,"Alias"
"662",23900,"Santa Lucia","2390","Cuba",NA,22.6666666666667,-83.9666666666667,"Alias"
"663",23900,"Santiago de Cuba","2390","Cuba",NA,20.0166666666667,-75.8333333333333,"Alias"
"664",23900,"Tunas de Zaza","2390","Cuba",NA,21.6333333333333,-79.55,"Alias"
"665",23900,"Yumuri","2390","Cuba",NA,NA,NA,"Alias"
"666",23931,"Daiquiri Bay","2390","Cuba",NA,NA,NA,"Official"
"667",23937,"Isabela del Sagua","2390","Cuba",NA,NA,NA,"Official"
"668",23937,"La Isabela de Sagua","2390","Cuba",NA,NA,NA,"Alias"
"669",23937,"Puerto General Peraza","2390","Cuba",NA,NA,NA,"Alias"
"670",23937,"Sagua la Grande","2390","Cuba",NA,NA,NA,"Alias"
"671",23941,"Boqueron","2390","Cuba",NA,19.98082,-75.15418,"Alias"
"672",23941,"Caimanera","2390","Cuba",NA,19.98082,-75.15418,"Alias"
"673",23941,"Deseo","2390","Cuba",NA,19.98082,-75.15418,"Alias"
"674",23941,"Guantanamo Bay","2390","Cuba",NA,19.98082,-75.15418,"Official"
"675",23944,"Havana","2390","Cuba",NA,NA,NA,"Official"
"676",23944,"La Habana","2390","Cuba",NA,23.1333333333333,-82.3333333333333,"Alias"
"677",23944,"Regla","2390","Cuba",NA,NA,NA,"Alias"
"678",23961,"Lengua de Pajaro","2390","Cuba",NA,NA,NA,"Official"
"679",23961,"Nicaro","2390","Cuba",NA,20.7166666666667,-75.55,"Alias"
"680",23979,"Guayabal","2390","Cuba",NA,20.6833333333333,-77.6166666666667,"Official"
"681",23979,"Manopla","2390","Cuba",NA,20.71667,-77.866667,"Alias"
"682",23979,"Sagua de Tanamo","2390","Cuba",NA,NA,NA,"Alias"
"683",23979,"Tanamo","2390","Cuba",NA,NA,NA,"Alias"
"684",23983,"Santa Cruz del Sur","2390","Cuba",NA,20.70434,-77.99412,"Official"
"685",24100,"All Other Jamaica Ports","2410","Jamaica",NA,NA,NA,"Official"
"686",24100,"Annotto Bay","2410","Jamaica",NA,18.2833333333333,-76.7833333333333,"Alias"
"687",24100,"Black River","2410","Jamaica",NA,18,-77.8833333333333,"Alias"
"688",24100,"Bluefields","2410","Jamaica",NA,12.0166666666667,-83.75,"Alias"
"689",24100,"Falmouth","2410","Jamaica",NA,50.14758,-5.05949,"Alias"
"690",24100,"Green Island","2410","Jamaica",NA,NA,NA,"Alias"
"691",24100,"Long Bay","2410","Jamaica",NA,NA,NA,"Alias"
"692",24100,"Lucea","2410","Jamaica",NA,18.45,-78.1666666666667,"Alias"
"693",24100,"Manchioneal","2410","Jamaica",NA,18.0333333333333,-76.2833333333333,"Alias"
"694",24100,"Morant Bay","2410","Jamaica",NA,17.8833333333333,-76.4166666666667,"Alias"
"695",24100,"Negril Harbor","2410","Jamaica",NA,NA,NA,"Alias"
"696",24100,"Oracabessa","2410","Jamaica",NA,18.4,-76.95,"Alias"
"697",24100,"Port Antonio","2410","Jamaica",NA,18.1833333333333,-76.45,"Alias"
"698",24100,"Port Maria","2410","Jamaica",NA,NA,NA,"Alias"
"699",24100,"Port Morant","2410","Jamaica",NA,17.8833333333333,-76.3166666666667,"Alias"
"700",24100,"Port Royal","2410","Jamaica",NA,NA,NA,"Alias"
"701",24100,"Rio Bueno","2410","Jamaica",NA,18.4666666666667,-77.4666666666667,"Alias"
"702",24100,"St. Ann's Bay","2410","Jamaica",NA,NA,NA,"Alias"
"703",24128,"Kingston","2410","Jamaica",NA,17.9666666666667,-76.7833333333333,"Official"
"704",24128,"Port Bustamante","2410","Jamaica",NA,NA,NA,"Alias"
"705",24145,"Montego Bay","2410","Jamaica",NA,18.49829,-77.92628,"Official"
"706",24155,"Ocho Rios","2410","Jamaica",NA,18.40773,-77.11144,"Official"
"707",24163,"Esquivel","2410","Jamaica",NA,17.88397,-77.13342,"Official"
"708",24163,"Longs Wharf","2410","Jamaica",NA,17.88397,-77.13342,"Alias"
"709",24163,"Port Esquivel","2410","Jamaica",NA,17.88397,-77.13342,"Alias"
"710",24165,"Alligator Pond","2410","Jamaica",NA,17.85,-77.6,"Official"
"711",24165,"Little Pedro Bluff","2410","Jamaica",NA,17.85,-77.6,"Alias"
"712",24165,"Port Kaiser","2410","Jamaica",NA,17.85,-77.6,"Alias"
"713",24167,"Port Rhoades","2410","Jamaica",NA,18.46052,-77.39748,"Official"
"714",24175,"Rocky Point","2410","Jamaica",NA,17.8166666666667,-77.15,"Official"
"715",24185,"Savanna La Mar","2410","Jamaica",NA,18.20789,-78.1513,"Official"
"716",24300,"All Other Caicos Islands","2430","Turks and Caicos Islands",NA,21.65,-71.864,"Official"
"717",24310,"Cockburn harbor","2430","Turks and Caicos Islands",NA,21.4935,-71.537,"Official"
"718",24311,"Providenciales","2430","Turks and Caicos Islands",NA,21.3247,-71.216,"Official"
"719",24320,"Grand Turks","2430","Turks and Caicos Islands",NA,21.43,-71.1525,"Official"
"720",24395,"Salt Cay","2430","Turks and Caicos Islands","Change",21.332,-71.2138,"Official"
"721",24399,"All Other Turks Islands Ports","2430","Turks and Caicos Islands",NA,21.415,-71.14,"Official"
"722",24400,"All Other Cayman Island Ports","2440","Cayman Isl",NA,19.55,-80.45,"Official"
"723",24410,"Georgetown","2440","Cayman Isl",NA,19.296,-81.387,"Official"
"724",24410,"Grand Cayman","2440","Cayman Isl",NA,19.296,-81.387,"Alias"
"725",24415,"Cayman Brac","2440","Cayman Isl",NA,19.55,-79.87,"Official"
"726",24500,"All Other Haiti Ports","2450","Haiti",NA,NA,NA,"Official"
"727",24500,"Anse du Clerc","2450","Haiti",NA,NA,NA,"Alias"
"728",24500,"Anse-D'Hainault","2450","Haiti",NA,NA,NA,"Alias"
"729",24500,"Aquin","2450","Haiti",NA,18.2666666666667,-73.3833333333333,"Alias"
"730",24500,"Dame Marie","2450","Haiti",NA,NA,NA,"Alias"
"731",24500,"Fond la Grange","2450","Haiti",NA,NA,NA,"Alias"
"732",24500,"Ile de la Gonave","2450","Haiti",NA,NA,NA,"Alias"
"733",24500,"Jeremie","2450","Haiti",NA,NA,NA,"Alias"
"734",24500,"Le Mole St. Nicholas","2450","Haiti",NA,NA,NA,"Alias"
"735",24500,"Leogane","2450","Haiti",NA,NA,NA,"Alias"
"736",24500,"Roche a Bateau","2450","Haiti",NA,NA,NA,"Alias"
"737",24500,"Saint Louis du Sud","2450","Haiti",NA,NA,NA,"Alias"
"738",24500,"Seringue","2450","Haiti",NA,NA,NA,"Alias"
"739",24500,"Tiburon","2450","Haiti",NA,NA,NA,"Alias"
"740",24509,"Aux Cayes","2450","Haiti",NA,18.19352,-73.74162,"Official"
"741",24513,"Cap Haitien","2450","Haiti",NA,19.75949,-72.19222,"Official"
"742",24514,"Fort Liberte","2450","Haiti",NA,19.66689,-71.83367,"Official"
"743",24515,"Labadee","2450","Haiti",NA,NA,NA,"Official"
"744",24537,"Jacmel","2450","Haiti",NA,18.2333333333333,-72.5166666666667,"Official"
"745",24553,"La Fitteau","2450","Haiti",NA,NA,NA,"Official"
"746",24553,"Lafiteau","2450","Haiti",NA,NA,NA,"Alias"
"747",24559,"Miragoane","2450","Haiti",NA,18.44937,-73.09232,"Official"
"748",24571,"Petit Goave","2450","Haiti",NA,18.42864,-72.87103,"Official"
"749",24579,"Port au Prince","2450","Haiti",NA,18.5481,-72.34286,"Official"
"750",24585,"Port de Paix","2450","Haiti",NA,19.95,-72.8333333333333,"Official"
"751",24588,"Gonaives","2450","Haiti",NA,19.45113,-72.69649,"Official"
"752",24591,"Saint Marc","2450","Haiti",NA,NA,NA,"Alias"
"753",24591,"St. Marc","2450","Haiti",NA,NA,NA,"Official"
"754",24700,"All Other Dominican Republic Ports","2470","Dominican Republic",NA,NA,NA,"Official"
"755",24700,"Andres","2470","Dominican Republic",NA,18.4333333333333,-69.6333333333333,"Alias"
"756",24700,"Azua","2470","Dominican Republic",NA,NA,NA,"Alias"
"757",24700,"Monte Cristi","2470","Dominican Republic",NA,19.86667,-71.65,"Alias"
"758",24700,"Palenque","2470","Dominican Republic",NA,NA,NA,"Alias"
"759",24700,"Puerto Palenque","2470","Dominican Republic",NA,18.2333333333333,-70.1666666666667,"Alias"
"760",24700,"Puerto Viejo de Azua","2470","Dominican Republic",NA,18.35,-70.8333333333333,"Alias"
"761",24713,"Barahona","2470","Dominican Republic",NA,NA,NA,"Official"
"762",24720,"Samana","2470","Dominican Republic",NA,NA,NA,"Official"
"763",24720,"Santa Barbara de Samana","2470","Dominican Republic",NA,19.2,-69.3333333333333,"Alias"
"764",24721,"Boca Chica","2470","Dominican Republic",NA,18.44976,-69.60925,"Official"
"765",24722,"Caucedo","2470","Dominican Republic",NA,NA,NA,"Official"
"766",24727,"Cabo Rojo","2470","Dominican Republic",NA,17.9122,-71.65762,"Official"
"767",24731,"Bahia de Las Calderas","2470","Dominican Republic",NA,NA,NA,"Official"
"768",24731,"Caldera Bay","2470","Dominican Republic",NA,NA,NA,"Alias"
"769",24731,"Las Calderas","2470","Dominican Republic",NA,18.2166666666667,-70.5166666666667,"Alias"
"770",24737,"Ciudad Trujillo","2470","Dominican Republic",NA,18.48421,-69.88526,"Alias"
"771",24737,"Santo Domingo","2470","Dominican Republic",NA,18.48421,-69.88526,"Official"
"772",24738,"Punta Torrecilla","2470","Dominican Republic",NA,NA,NA,"Alias"
"773",24738,"Torrecilla","2470","Dominican Republic",NA,NA,NA,"Official"
"774",24741,"Haina","2470","Dominican Republic",NA,NA,NA,"Alias"
"775",24741,"Jaina","2470","Dominican Republic",NA,NA,NA,"Alias"
"776",24741,"Rio Haina","2470","Dominican Republic",NA,18.42,-70,"Official"
"777",24741,"Rio Jaina","2470","Dominican Republic",NA,NA,NA,"Alias"
"778",24743,"La Romana","2470","Dominican Republic",NA,18.41626,-68.96085,"Official"
"779",24745,"Manzanillo","2470","Dominican Republic",NA,20.35,-77.1166666666667,"Alias"
"780",24745,"Manzanillo Bay","2470","Dominican Republic",NA,19.753637,-71.821971,"Official"
"781",24745,"Pepillo Salcedo","2470","Dominican Republic",NA,19.71667,-71.75,"Alias"
"782",24745,"Puerto Libertador","2470","Dominican Republic",NA,NA,NA,"Alias"
"783",24773,"Puerto Plata","2470","Dominican Republic",NA,19.79975,-70.68529,"Official"
"784",24774,"Luperon","2470","Dominican Republic",NA,NA,NA,"Official"
"785",24791,"San Pedro de Macoris","2470","Dominican Republic",NA,18.4492,-69.30715,"Official"
"786",24800,"All Other Leeward Islands","9990","Unknown",NA,NA,NA,"Official"
"787",24813,"Virgin Gorda","2482","British Virgin",NA,23.6797,-15.9357,"Official"
"788",24815,"Port Purcell","2482","British Virgin",NA,18.419,-64.609,"Alias"
"789",24815,"Road Harbour, Tortola","2482","British Virgin",NA,18.419,-64.609,"Alias"
"790",24815,"Road Town, Tortola Island","2482","British Virgin",NA,18.419,-64.609,"Official"
"791",24821,"Anguilla","2481","Anguilla",NA,18.207,-63.1,"Official"
"792",24823,"Sombrero Island","2481","Anguilla",NA,18.587,-63.423,"Official"
"793",24831,"Parham Harbour, Antigua","2484","Antigua",NA,17.13,-61.76,"Alias"
"794",24831,"St. John's, Antigua","2484","Antigua",NA,17.1226,-61.855,"Official"
"795",24835,"Basseterre, St. Kitts","2483","St. Kitts and Nevis",NA,17.29262,-62.71574,"Official"
"796",24837,"Charlestown, Nevis Is.","2483","St. Kitts and Nevis",NA,17.12671,-62.63291,"Official"
"797",24845,"Plymouth","2485","Montserrat",NA,16.702,-62.225,"Official"
"798",24851,"Rouseau","2486","Dominica",NA,15.29258,-61.39542,"Official"
"799",24852,"Portsmouth","2486","Dominica",NA,15.564,-61.462,"Official"
"800",24853,"Woodbridge Bay","2486","Dominica",NA,15.313,-61.3925,"Official"
"801",24865,"Castries","2487","St. Lucia",NA,14.012,-60.996,"Official"
"802",24866,"Cul de Sac","2487","St. Lucia",NA,13.986,-61.0175,"Official"
"803",24867,"Vieux Fort","2487","St. Lucia",NA,13.725,-60.96,"Official"
"804",24871,"Admiralty Bay","2488","St. Vincent",NA,16.01,-61.25,"Alias"
"805",24871,"Kingstown","2488","St. Vincent",NA,13.15,-61.227,"Official"
"806",24881,"St. George","2489","Grenada",NA,12.047,-61.76,"Alias"
"807",24881,"St. George's","2489","Grenada",NA,12.047,-61.76,"Official"
"808",24882,"Grande Anse","2489","Grenada",NA,11.99,-61.767,"Official"
"809",24899,"All Other Windward Island Ports","9990","Unknown",NA,NA,NA,"Official"
"810",27201,"Bridgetown","2720","Barbados",NA,13.105,-59.635,"Official"
"811",27210,"Oistins","2720","Barbados",NA,13.061,-59.545,"Official"
"812",27213,"Speightstown","2720","Barbados",NA,13.245,-59.646,"Official"
"813",27400,"All Other Trinidad Ports","2740","Trinidad",NA,NA,NA,"Official"
"814",27400,"Brighton","2740","Trinidad",NA,10.25,-61.6333333333333,"Alias"
"815",27400,"Chaguaramas","2740","Trinidad",NA,10.6833333333333,-61.65,"Alias"
"816",27400,"La Brea","2740","Trinidad",NA,NA,NA,"Alias"
"817",27400,"Tobago","2740","Trinidad",NA,NA,NA,"Alias"
"818",27410,"Galeota Point","2740","Trinidad",NA,10.1307,-60.9945,"Alias"
"819",27410,"Point Galeota","2740","Trinidad",NA,10.1307,-60.9945,"Official"
"820",27415,"Pointe a Pierre","2740","Trinidad",NA,10.31535,-61.45966,"Official"
"821",27420,"Point Fortin","2740","Trinidad",NA,10.1755,-61.68328,"Official"
"822",27425,"Point Lisas","2740","Trinidad",NA,10.36271,-61.47658,"Official"
"823",27431,"Port of Spain","2740","Trinidad",NA,10.65349,-61.52652,"Official"
"824",27443,"San Fernando","2740","Trinidad",NA,16.6166666666667,120.3,"Official"
"825",27446,"Tembladora","2740","Trinidad",NA,10.6783,-61.5816,"Official"
"826",27451,"Scarborough","2740","Trinidad",NA,11.18333,-60.73333,"Official"
"827",27701,"Oranjestad","2779","Aruba","Change",12.519,-70.046,"Official"
"828",27701,"Paarden Baai","2779","Aruba","Latitude/Longitude Update",12.519,-70.046,"Alias"
"829",27701,"Paarden Bay","2779","Aruba","Latitude/Longitude Update",12.519,-70.046,"Alias"
"830",27702,"San Nicolas Bay","2779","Aruba","Change",12.429,-69.92,"Alias"
"831",27702,"Sint Nicolaas Baai","2779","Aruba","Change",12.429,-69.92,"Official"
"832",27702,"St. Nicolaas","2779","Aruba","Latitude/Longitude Update",12.429,-69.92,"Alias"
"833",27703,"Barcadera","2779","Aruba","Latitude/Longitude Update",12.478,-70,"Official"
"834",27740,"All Other Sint Maarten (Dutch Side) Ports","2774","Sint Maarten",NA,18.015,-63.065,"Official"
"835",27742,"Philipsburg","2774","Sint Maarten",NA,18.006,-63.05,"Official"
"836",27746,"Sint Maarten","2774","Sint Maarten","Change",18,-63.06,"Official"
"837",27750,"All Other Bonaire,Sint Eustatius & Saba Ports","2775","Bonaire, Sint Eustatius & Saba",NA,17.48,-63.25,"Official"
"838",27752,"Bonaire","2775","Bonaire, Sint Eustatius & Saba",NA,172.16,-68.285,"Official"
"839",27752,"Goto","2775","Bonaire, Sint Eustatius & Saba",NA,12.218,-68.384,"Alias"
"840",27752,"Kralendijk","2775","Bonaire, Sint Eustatius & Saba",NA,12.147,-68.283,"Alias"
"841",27754,"Fort Baai","2775","Bonaire, Sint Eustatius & Saba",NA,17.616,-63.252,"Alias"
"842",27754,"Fort Bay","2775","Bonaire, Sint Eustatius & Saba",NA,17.616,-63.252,"Alias"
"843",27754,"Saba","2775","Bonaire, Sint Eustatius & Saba",NA,17.616,-63.252,"Official"
"844",27756,"Sint Eustatius","2775","Bonaire, Sint Eustatius & Saba",NA,17.484,-63,"Official"
"845",27756,"St. Eustatius","2775","Bonaire, Sint Eustatius & Saba",NA,17.484,-63,"Alias"
"846",27760,"All Other Saint Martin (French Side) Ports","2776","Saint Martin",NA,18.094,-63.079,"Official"
"847",27762,"Galisbay","2776","Saint Martin",NA,18.083,-63.085,"Alias"
"848",27762,"St. Martin","2776","Saint Martin",NA,18.077,-63.087,"Official"
"849",27770,"All Other Curacao Ports","2777","Curacao",NA,12.102,-68.93,"Official"
"850",27772,"Bullen Bay","2777","Curacao",NA,12.187,-69.025,"Alias"
"851",27772,"Bullenbaai","2777","Curacao",NA,12.187,-69.025,"Alias"
"852",27772,"Curacao","2777","Curacao",NA,12.102,-68.93,"Official"
"853",27774,"Caracas Baai","2777","Curacao",NA,12.071,-68.864,"Official"
"854",27774,"Caracas Bay","2777","Curacao","Alias Added",12.071,-68.864,"Alias"
"855",27776,"Fuikbaai","2777","Curacao",NA,12.049,-68.8318,"Official"
"856",27779,"Sint Michielsbaai","2777","Curacao",NA,12.13,-69.01,"Alias"
"857",27779,"Willemstad","2777","Curacao",NA,12.107,-68.955,"Official"
"858",28300,"All Other Guadeloupe Ports","2831","Guadeloupe",NA,NA,NA,"Official"
"859",28300,"Saint Martin","2831","Guadeloupe",NA,NA,NA,"Alias"
"860",28300,"St. Anne","2831","Guadeloupe",NA,NA,NA,"Alias"
"861",28300,"St. Martin","2831","Guadeloupe",NA,NA,NA,"Alias"
"862",28313,"Pointe a Pitre","2831","Guadeloupe",NA,16.24854,-61.53678,"Official"
"863",28315,"Basse Terre","2831","Guadeloupe",NA,15.99337,-61.7273,"Official"
"864",28319,"Gustavia","2831","Guadeloupe",NA,17.9,-62.85,"Alias"
"865",28319,"Port Gustave","2831","Guadeloupe",NA,NA,NA,"Alias"
"866",28319,"Saint Bartholomew","2831","Guadeloupe",NA,NA,NA,"Alias"
"867",28319,"St. Barth's","2831","Guadeloupe",NA,NA,NA,"Alias"
"868",28319,"St. Barthelemy","2831","Guadeloupe",NA,NA,NA,"Official"
"869",28319,"St. Bartholomew","2831","Guadeloupe",NA,NA,NA,"Alias"
"870",28320,"Marigot, St. Martin","2831","Guadeloupe",NA,NA,NA,"Official"
"871",28351,"Fort de France","2839","Martinique",NA,14.6,-61.0666666666667,"Official"
"872",28399,"All Other Martinique Ports","2839","Martinique",NA,NA,NA,"Official"
"873",28399,"Baie du Galion","2839","Martinique",NA,14.7333333333333,-60.9333333333333,"Alias"
"874",28399,"Galion","2839","Martinique",NA,NA,NA,"Alias"
"875",28399,"Gallion Bay","2839","Martinique",NA,NA,NA,"Alias"
"876",28399,"La Trinite","2839","Martinique",NA,14.75,-60.966667,"Alias"
"877",28399,"Le Francois","2839","Martinique",NA,NA,NA,"Alias"
"878",28399,"Le Lamentin","2839","Martinique",NA,NA,NA,"Alias"
"879",28399,"Le Marin","2839","Martinique",NA,14.4666666666667,-60.8666666666667,"Alias"
"880",28399,"Le Robert","2839","Martinique",NA,14.6666666666667,-60.9333333333333,"Alias"
"881",28399,"Saint Pierre","2839","Martinique",NA,NA,NA,"Alias"
"882",28399,"St. Pierre","2839","Martinique",NA,NA,NA,"Alias"
"883",30100,"All Other Colombian Caribbean Region Ports","3010","Colombia",NA,NA,NA,"Official"
"884",30100,"Pozos Colorados","3010","Colombia",NA,11.15,-74.25,"Alias"
"885",30100,"Puerto Zuniga","3010","Colombia",NA,NA,NA,"Alias"
"886",30104,"Barranquilla","3010","Colombia",NA,11.01747,-74.78978,"Official"
"887",30107,"Cartagena","3010","Colombia",NA,37.5833333333333,-0.983333333333333,"Official"
"888",30110,"Covenas","3010","Colombia",NA,9.41666666666667,-75.6833333333333,"Official"
"889",30111,"Tolu","3010","Colombia",NA,9.507551,-75.604256,"Official"
"890",30121,"Puerto Bolivar","3010","Colombia",NA,12.21582,-71.97981,"Official"
"891",30125,"Mamonal","3010","Colombia",NA,10.30924,-75.50557,"Official"
"892",30130,"Isla San Andres","3010","Colombia",NA,NA,NA,"Official"
"893",30130,"San Andres","3010","Colombia",NA,NA,NA,"Alias"
"894",30131,"Puerto Colombia","3010","Colombia",NA,NA,NA,"Official"
"895",30140,"Puerto Drummond","3010","Colombia",NA,11.26404,-74.20116,"Alias"
"896",30140,"Santa Marta","3010","Colombia",NA,11.26404,-74.20116,"Official"
"897",30145,"Turbo","3010","Colombia",NA,8.07044,-76.74086,"Official"
"898",30151,"Buenaventura","3010","Colombia",NA,3.88935,-77.07757,"Official"
"899",30152,"Tumaco","3010","Colombia",NA,1.80673,-78.80185,"Official"
"900",30198,"All Colombia Amazon Region Ports","3010","Colombia",NA,NA,NA,"Official"
"901",30198,"Leticia","3010","Colombia",NA,NA,NA,"Alias"
"902",30198,"Tarapaca","3010","Colombia",NA,NA,NA,"Alias"
"903",30199,"All Other Colombia West Coast Region Ports","3010","Colombia",NA,NA,NA,"Official"
"904",30700,"Adicora","3070","Venezuela",NA,NA,NA,"Alias"
"905",30700,"All Other Venezuela Ports","3070","Venezuela",NA,NA,NA,"Official"
"906",30700,"Altagracia","3070","Venezuela",NA,NA,NA,"Alias"
"907",30700,"Bachaquero","3070","Venezuela",NA,9.95,-71.15,"Alias"
"908",30700,"Bobures","3070","Venezuela",NA,NA,NA,"Alias"
"909",30700,"Cabimas","3070","Venezuela",NA,10.3833333333333,-71.4833333333333,"Alias"
"910",30700,"Chichiriviche","3070","Venezuela",NA,10.9166666666667,-68.2666666666667,"Alias"
"911",30700,"Coloncha","3070","Venezuela",NA,NA,NA,"Alias"
"912",30700,"Guiria","3070","Venezuela",NA,10.5666666666667,-62.3,"Alias"
"913",30700,"La Ceiba","3070","Venezuela",NA,NA,NA,"Alias"
"914",30700,"Lagunillas","3070","Venezuela",NA,10.13333,-71.25,"Alias"
"915",30700,"Pampatar","3070","Venezuela",NA,10.98333,-63.8,"Alias"
"916",30700,"Porlamar","3070","Venezuela",NA,10.95,-63.85,"Alias"
"917",30700,"Puerto Cumarebo","3070","Venezuela",NA,11.4833333333333,-69.35,"Alias"
"918",30700,"Puerto Espiritu","3070","Venezuela",NA,NA,NA,"Alias"
"919",30700,"Puerto Gorda","3070","Venezuela",NA,NA,NA,"Alias"
"920",30700,"Puerto de Hierro","3070","Venezuela",NA,10.6333333333333,-62.0833333333333,"Alias"
"921",30700,"Punta Camacho","3070","Venezuela",NA,NA,NA,"Alias"
"922",30700,"Punta Gorda","3070","Venezuela",NA,NA,NA,"Alias"
"923",30700,"Punta Piedras","3070","Venezuela",NA,NA,NA,"Alias"
"924",30700,"Rio Chico","3070","Venezuela",NA,NA,NA,"Alias"
"925",30700,"Rio Sico","3070","Venezuela",NA,NA,NA,"Alias"
"926",30700,"San Lorenzo","3070","Venezuela",NA,9.78333333333333,-71.0666666666667,"Alias"
"927",30700,"Tucacas","3070","Venezuela",NA,10.8,-68.3,"Alias"
"928",30700,"Turiamo","3070","Venezuela",NA,NA,NA,"Alias"
"929",30704,"Amuay Bay","3070","Venezuela",NA,11.76944,-70.237,"Official"
"930",30704,"Bahia de Amuay","3070","Venezuela",NA,11.76944,-70.237,"Alias"
"931",30708,"Bajo Grande","3070","Venezuela",NA,10.48047,-71.63161,"Official"
"932",30721,"Carupano","3070","Venezuela",NA,10.67305,-63.25243,"Official"
"933",30725,"Ciudad Bolivar","3070","Venezuela",NA,8.14423,-63.5412,"Official"
"934",30735,"El Chaure","3070","Venezuela",NA,10.25,-62.61667,"Official"
"935",30737,"El Palito","3070","Venezuela",NA,10.5,-68.1166666666667,"Official"
"936",30737,"Punta Chavez","3070","Venezuela",NA,NA,NA,"Alias"
"937",30739,"El Tablazo","3070","Venezuela",NA,10.73931,-71.53101,"Official"
"938",30741,"Bahia Guanta","3070","Venezuela",NA,10.25134,-64.57999,"Official"
"939",30741,"Guanta","3070","Venezuela",NA,10.25134,-64.57999,"Alias"
"940",30742,"Guaranao","3070","Venezuela",NA,11.66779,-70.22336,"Official"
"941",30743,"Jose","3070","Venezuela",NA,NA,NA,"Official"
"942",30743,"Petrozuata","3070","Venezuela",NA,NA,NA,"Alias"
"943",30743,"Puerto Jose","3070","Venezuela",NA,NA,NA,"Alias"
"944",30745,"Caracas","3070","Venezuela",NA,10.60602,-66.89154,"Alias"
"945",30745,"La Guaira","3070","Venezuela",NA,10.60602,-66.89154,"Official"
"946",30753,"La Salina","3070","Venezuela",NA,10.35049,-71.42226,"Official"
"947",30755,"Las Piedras","3070","Venezuela",NA,11.57142,-70.1402,"Official"
"948",30758,"Moron","3070","Venezuela",NA,10.53333,-68.18333,"Official"
"949",30759,"Maracaibo","3070","Venezuela",NA,10.6333333333333,-71.6,"Official"
"950",30760,"Matanzas","3070","Venezuela",NA,8.284044,-62.862137,"Official"
"951",30761,"Palua","3070","Venezuela",NA,8.36552,-62.67547,"Official"
"952",30763,"Puerto Miranda","3070","Venezuela",NA,10.77244,-71.55912,"Official"
"953",30764,"Puerto Cabello","3070","Venezuela",NA,10.47948,-68.00932,"Official"
"954",30765,"Coro","3070","Venezuela",NA,NA,NA,"Official"
"955",30766,"Cumarebo","3070","Venezuela",NA,NA,NA,"Official"
"956",30767,"Punta Cuchillo","3070","Venezuela",NA,8.33637,-62.76055,"Official"
"957",30768,"Puerto Ordaz","3070","Venezuela",NA,8.3509,-62.70898,"Official"
"958",30769,"Cumana","3070","Venezuela",NA,10.46667,-64.15,"Official"
"959",30769,"Puerto Sucre","3070","Venezuela",NA,10.4666666666667,-64.1833333333333,"Alias"
"960",30770,"Punta Cardon","3070","Venezuela",NA,11.62555,-70.23255,"Official"
"961",30771,"Puerto La Cruz","3070","Venezuela",NA,10.21367,-64.63761,"Official"
"962",30772,"Caripito","3070","Venezuela",NA,10.12399,-63.09199,"Official"
"963",30773,"Punta Palmas","3070","Venezuela",NA,10.44411,-71.62709,"Official"
"964",30774,"El Guamache","3070","Venezuela",NA,10.86217,-64.0588,"Official"
"965",30775,"Pertigalete","3070","Venezuela",NA,10.25467,-64.55106,"Official"
"966",30780,"San Felix","3070","Venezuela",NA,NA,NA,"Official"
"967",31200,"All Other Guyana Ports","3120","Guyana","Latitude/Longitude Update",7.03,-58.23,"Official"
"968",31201,"Demerara","3120","Guyana","Latitude/Longitude Update",6.793,-58.174,"Alias"
"969",31201,"Georgetown","3120","Guyana","Latitude/Longitude Update",6.793,-58.174,"Official"
"970",31202,"New Amsterdam","3120","Guyana","Latitude/Longitude Update",6.24,-57.527,"Official"
"971",31215,"Linden","3120","Guyana","Latitude/Longitude Update",5.9996,-58.306,"Official"
"972",31215,"McKenzie","3120","Guyana","Alias Added",5.9996,-58.306,"Alias"
"973",31230,"Barama","3120","Guyana","Latitude/Longitude Update",8.13,-59.2,"Official"
"974",31230,"Baramanni","3120","Guyana","Latitude/Longitude Update",8.13,-59.2,"Alias"
"975",31268,"Everton","3120","Guyana","Latitude/Longitude Update",6.19,-57.53,"Official"
"976",31500,"All Other Suriname Ports","3150","Suriname","Latitude/Longitude Update",6.03,-55.614,"Official"
"977",31501,"Moengo","3150","Suriname","Latitude/Longitude Update",5.626,-54.4075,"Official"
"978",31510,"Nieuw Nickerie","3150","Suriname","New Schedule K Code Added",5.95,-56.998,"Official"
"979",31520,"Wageningen","3150","Suriname","New Schedule K Code Added",5.7636,-56.6891,"Official"
"980",31523,"Paramaribo","3150","Suriname","Latitude/Longitude Update",5.819,-55.16,"Official"
"981",31523,"Smalkalden","3150","Suriname","Latitude/Longitude Update",5.616,-55.0897,"Alias"
"982",31524,"Paranam","3150","Suriname","Latitude/Longitude Update",5.614,-55.089,"Official"
"983",31700,"All Other French Guiana Ports","3170","French Guiana",NA,5.43,-52.8,"Official"
"984",31702,"Cayenne","3170","French Guiana",NA,4.936,-52.342,"Official"
"985",31704,"Saint Laurent","3170","French Guiana",NA,5.496,-54.038,"Alias"
"986",31704,"Saint Laurent du Maroni","3170","French Guiana",NA,5.496,-54.038,"Official"
"987",31707,"Degrad des Cannes","3170","French Guiana",NA,4.852,-52.273,"Official"
"988",33100,"All Other Ecuador Ports","3310","Ecuador",NA,NA,NA,"Official"
"989",33100,"Galapagos Islands","3310","Ecuador",NA,NA,NA,"Alias"
"990",33100,"Manchala","3310","Ecuador",NA,NA,NA,"Alias"
"991",33100,"Manglaralto","3310","Ecuador",NA,NA,NA,"Alias"
"992",33100,"Puna","3310","Ecuador",NA,-2.73333333333333,-79.9166666666667,"Alias"
"993",33100,"San Lorenzo","3310","Ecuador",NA,9.78333333333333,-71.0666666666667,"Alias"
"994",33100,"Santa Elena","3310","Ecuador",NA,NA,NA,"Alias"
"995",33101,"Bahia de Caraquez","3310","Ecuador",NA,-0.583333333333333,-80.4166666666667,"Official"
"996",33109,"Balao","3310","Ecuador",NA,NA,NA,"Official"
"997",33109,"Balao Terminal","3310","Ecuador",NA,NA,NA,"Alias"
"998",33109,"Tepre","3310","Ecuador",NA,NA,NA,"Alias"
"999",33115,"Salinas","3310","Ecuador",NA,-2.15825,-80.81842,"Official"
"1000",33121,"Esmeraldas","3310","Ecuador",NA,0.98329,-79.64829,"Official"
"1001",33131,"Duran","3310","Ecuador",NA,NA,NA,"Official"
"1002",33131,"Guayaquil","3310","Ecuador",NA,-2.2,-79.8833333333333,"Alias"
"1003",33132,"Puerto Nuevo","3310","Ecuador",NA,NA,NA,"Official"
"1004",33136,"La Libertad","3310","Ecuador",NA,-2.21888,-80.90749,"Official"
"1005",33151,"Manta","3310","Ecuador",NA,-0.94028,-80.72231,"Official"
"1006",33159,"Puerto Bolivar","3310","Ecuador",NA,-3.26667,-80,"Official"
"1007",33300,"All Other Peru Ports","3330","Peru",NA,NA,NA,"Official"
"1008",33300,"Atico","3330","Peru",NA,NA,NA,"Alias"
"1009",33300,"Bahia de Eten","3330","Peru",NA,NA,NA,"Alias"
"1010",33300,"Bayovar","3330","Peru",NA,NA,NA,"Alias"
"1011",33300,"Casma","3330","Peru",NA,NA,NA,"Alias"
"1012",33300,"Cerro Azul","3330","Peru",NA,NA,NA,"Alias"
"1013",33300,"Chala","3330","Peru",NA,-16.138608,-73.766994,"Alias"
"1014",33300,"Chancay","3330","Peru",NA,-11.5833333333333,-77.2833333333333,"Alias"
"1015",33300,"Chicama","3330","Peru",NA,NA,NA,"Alias"
"1016",33300,"Chiclayo","3330","Peru",NA,NA,NA,"Alias"
"1017",33300,"Chilca","3330","Peru",NA,NA,NA,"Alias"
"1018",33300,"Chimbote","3330","Peru",NA,NA,NA,"Alias"
"1019",33300,"Chincha Islands","3330","Peru",NA,NA,NA,"Alias"
"1020",33300,"Eten","3330","Peru",NA,NA,NA,"Alias"
"1021",33300,"Huacho","3330","Peru",NA,-11.1166666666667,-77.6166666666667,"Alias"
"1022",33300,"Huarmey","3330","Peru",NA,NA,NA,"Alias"
"1023",33300,"Islas Lobos de Afuera","3330","Peru",NA,NA,NA,"Alias"
"1024",33300,"Islas Lobos de Tierra","3330","Peru",NA,NA,NA,"Alias"
"1025",33300,"Lobos de Afuera","3330","Peru",NA,NA,NA,"Alias"
"1026",33300,"Lobos de Tierra","3330","Peru",NA,NA,NA,"Alias"
"1027",33300,"Lomas","3330","Peru",NA,NA,NA,"Alias"
"1028",33300,"Mala","3330","Peru",NA,NA,NA,"Alias"
"1029",33300,"Pacasmayo","3330","Peru",NA,-7.4,-79.5833333333333,"Alias"
"1030",33300,"Paracas Bay","3330","Peru",NA,NA,NA,"Alias"
"1031",33300,"Paramonga","3330","Peru",NA,NA,NA,"Alias"
"1032",33300,"Peruvian Whaling Grounds","3330","Peru",NA,NA,NA,"Alias"
"1033",33300,"Puerto Bayovar","3330","Peru",NA,-5.83333333333333,-81.05,"Alias"
"1034",33300,"Puerto Eten","3330","Peru",NA,-6.93333333333333,-79.85,"Alias"
"1035",33300,"Punta Pescadores","3330","Peru",NA,NA,NA,"Alias"
"1036",33300,"Trujillo","3330","Peru",NA,-8.14,-79.034,"Alias"
"1037",33301,"Ancon","3330","Peru",NA,-11.75,-77.18333,"Official"
"1038",33303,"Callao","3330","Peru",NA,-12.04927,-77.1458,"Official"
"1039",33305,"Conchan","3330","Peru",NA,NA,NA,"Official"
"1040",33335,"Ilo","3330","Peru",NA,-17.65166,-71.34894,"Official"
"1041",33337,"Iquitos","3330","Peru",NA,-3.75158,-73.18708,"Official"
"1042",33340,"La Pampilla","3330","Peru",NA,-11.90835,-77.15092,"Official"
"1043",33354,"Matarani","3330","Peru",NA,-17.00142,-72.10639,"Official"
"1044",33355,"Mollendo","3330","Peru",NA,-17.03011,-72.02615,"Official"
"1045",33363,"Paita","3330","Peru",NA,-5.08604,-81.11048,"Official"
"1046",33371,"Pimentel","3330","Peru",NA,-6.8306,-79.93388,"Official"
"1047",33373,"General San Martin","3330","Peru",NA,NA,NA,"Official"
"1048",33373,"Pisco","3330","Peru",NA,NA,NA,"Alias"
"1049",33377,"Salaverry","3330","Peru",NA,-8.22122,-78.99102,"Official"
"1050",33380,"San Nicolas","3330","Peru",NA,-33.32087,-60.2264,"Official"
"1051",33385,"Supe","3330","Peru",NA,-10.79903,-77.75554,"Official"
"1052",33389,"Talara","3330","Peru",NA,-4.57577,-81.2821,"Official"
"1053",33700,"All Other Chile Ports","3370","Chile",NA,NA,NA,"Official"
"1054",33700,"Ancud","3370","Chile",NA,-41.8666666666667,-73.8333333333333,"Alias"
"1055",33700,"Caleta Buena","3370","Chile",NA,NA,NA,"Alias"
"1056",33700,"Carrizal Bajo","3370","Chile",NA,NA,NA,"Alias"
"1057",33700,"Chacabuco","3370","Chile",NA,NA,NA,"Alias"
"1058",33700,"Coronel","3370","Chile",NA,-37.0333333333333,-73.1666666666667,"Alias"
"1059",33700,"Corral","3370","Chile",NA,NA,NA,"Alias"
"1060",33700,"Cruz Grande","3370","Chile",NA,NA,NA,"Alias"
"1061",33700,"Easter Island","3370","Chile",NA,NA,NA,"Alias"
"1062",33700,"Gatico","3370","Chile",NA,NA,NA,"Alias"
"1063",33700,"Guanillo","3370","Chile",NA,NA,NA,"Alias"
"1064",33700,"Lebu","3370","Chile",NA,-37.6333333333333,-73.6666666666667,"Alias"
"1065",33700,"Los Vilos","3370","Chile",NA,NA,NA,"Alias"
"1066",33700,"Lota","3370","Chile",NA,-37.1,-73.15,"Alias"
"1067",33700,"Mejillones del Sur","3370","Chile",NA,NA,NA,"Alias"
"1068",33700,"Pabellon","3370","Chile",NA,NA,NA,"Alias"
"1069",33700,"Papudo","3370","Chile",NA,-32.5,-71.466667,"Alias"
"1070",33700,"Pena Blanca","3370","Chile",NA,NA,NA,"Alias"
"1071",33700,"Pisagua","3370","Chile",NA,NA,NA,"Alias"
"1072",33700,"Puerto Montt","3370","Chile",NA,-41.4833333333333,-72.9666666666667,"Alias"
"1073",33700,"Punta Patache","3370","Chile",NA,NA,NA,"Alias"
"1074",33700,"Taltal","3370","Chile",NA,-25.4,-70.4833333333333,"Alias"
"1075",33700,"Tome","3370","Chile",NA,NA,NA,"Alias"
"1076",33700,"Valdivia","3370","Chile",NA,-39.8,-73.25,"Alias"
"1077",33703,"Antofagasta","3370","Chile",NA,-23.64959,-70.40371,"Official"
"1078",33704,"Angamos","3370","Chile",NA,-23.071426,-70.384037,"Official"
"1079",33706,"Arica","3370","Chile",NA,-18.48244,-70.32837,"Official"
"1080",33708,"Caldera","3370","Chile",NA,-27.06115,-70.82975,"Official"
"1081",33716,"Caleta Barquito","3370","Chile",NA,NA,NA,"Official"
"1082",33716,"Chanaral","3370","Chile",NA,-26.35,-70.65,"Alias"
"1083",33721,"Coquimbo","3370","Chile",NA,-29.95985,-71.33075,"Official"
"1084",33735,"Guayacan","3370","Chile",NA,-29.96024,-71.3612,"Official"
"1085",33739,"Huasco","3370","Chile",NA,-28.45581,-71.22812,"Official"
"1086",33741,"Iquique","3370","Chile",NA,-20.20615,-70.14747,"Official"
"1087",33751,"Lirquen","3370","Chile",NA,-36.69993,-72.98021,"Official"
"1088",33751,"Puerto de Lirquen","3370","Chile",NA,-36.69993,-72.98021,"Alias"
"1089",33765,"Caleta Patillos","3370","Chile",NA,-20.75046,-70.19824,"Official"
"1090",33765,"Patillos","3370","Chile",NA,-20.75046,-70.19824,"Alias"
"1091",33770,"Punta Arenas","3370","Chile",NA,-53.15728,-70.90476,"Official"
"1092",33775,"Quintero","3370","Chile",NA,-32.77974,-71.55068,"Official"
"1093",33776,"Santiago","3370","Chile",NA,-33.5,-70.9,"Official"
"1094",33779,"San Antonio","3370","Chile",NA,-33.58333,-71.633333,"Official"
"1095",33780,"San Vicente","3370","Chile",NA,-36.72865,-73.12965,"Official"
"1096",33781,"Talcahuano","3370","Chile",NA,-36.68026,-73.09687,"Official"
"1097",33782,"Penco","3370","Chile",NA,-36.7166666666667,-73,"Official"
"1098",33788,"Tocopilla","3370","Chile",NA,-22.07949,-70.19013,"Official"
"1099",33797,"Las Salinas","3370","Chile",NA,-33.0367,-71.6331,"Official"
"1100",33797,"Valparaiso","3370","Chile",NA,-33.0367,-71.6331,"Alias"
"1101",35107,"Angra dos Reis","3510","Brazil",NA,-23.0166666666667,-44.3166666666667,"Official"
"1102",35107,"Tebig","3510","Brazil",NA,NA,NA,"Alias"
"1103",35113,"Madre de Deus","3510","Brazil",NA,-12.75,-38.6333333333333,"Official"
"1104",35115,"Aratu","3510","Brazil",NA,-12.78093,-38.45574,"Official"
"1105",35120,"Pecem","3510","Brazil",NA,NA,NA,"Official"
"1106",35120,"Port do Pecem","3510","Brazil",NA,NA,NA,"Alias"
"1107",35121,"Barcarena","3510","Brazil",NA,NA,NA,"Alias"
"1108",35121,"Belem","3510","Brazil",NA,-1.45,-48.5,"Official"
"1109",35121,"Para","3510","Brazil",NA,NA,NA,"Alias"
"1110",35121,"Vila do Conde","3510","Brazil",NA,NA,NA,"Alias"
"1111",35123,"Breves","3510","Brazil",NA,NA,NA,"Official"
"1112",35127,"Cabedelo","3510","Brazil",NA,-6.96666666666667,-34.8333333333333,"Official"
"1113",35127,"Joao Pessoa","3510","Brazil",NA,NA,NA,"Alias"
"1114",35133,"Ceara","3510","Brazil",NA,NA,NA,"Official"
"1115",35133,"Fortaleza","3510","Brazil",NA,-3.7,-38.4833333333333,"Alias"
"1116",35133,"Mucuripe","3510","Brazil",NA,NA,NA,"Alias"
"1117",35135,"Itaqui","3510","Brazil",NA,-2.58333333333333,-44.3666666666667,"Official"
"1118",35135,"Port Itaqui","3510","Brazil",NA,NA,NA,"Alias"
"1119",35135,"Sao Luiz de Maranhao","3510","Brazil",NA,NA,NA,"Alias"
"1120",35136,"Navegantes","3510","Brazil",NA,NA,NA,"Official"
"1121",35137,"Ilheus","3510","Brazil",NA,NA,NA,"Official"
"1122",35137,"Malhado","3510","Brazil",NA,NA,NA,"Alias"
"1123",35138,"Itajai","3510","Brazil",NA,-26.9166666666667,-48.6333333333333,"Official"
"1124",35138,"Itajay","3510","Brazil",NA,NA,NA,"Alias"
"1125",35139,"Itacoatiara","3510","Brazil",NA,-3.15,-58.45,"Official"
"1126",35141,"Maceio","3510","Brazil",NA,-9.67348,-35.72757,"Official"
"1127",35144,"Manaus","3510","Brazil",NA,-3.13259,-60.01934,"Official"
"1128",35157,"Natal","3510","Brazil",NA,-5.78285,-35.18641,"Official"
"1129",35158,"Obidos","3510","Brazil",NA,-1.91666666666667,-55.5166666666667,"Official"
"1130",35159,"Antonina","3510","Brazil",NA,-25.4333333333333,-48.7,"Official"
"1131",35159,"Barao de Teffe","3510","Brazil",NA,NA,NA,"Alias"
"1132",35159,"Paranagua","3510","Brazil",NA,-25.5,-48.5166666666667,"Alias"
"1133",35160,"Praia Mole","3510","Brazil",NA,-20.27959,-40.24941,"Official"
"1134",35160,"Tubarao","3510","Brazil",NA,-20.27959,-40.24941,"Alias"
"1135",35161,"Tramandai","3510","Brazil",NA,-29.9726,-50.11113,"Official"
"1136",35163,"Parnahyba","3510","Brazil",NA,NA,NA,"Official"
"1137",35163,"Parnaiba","3510","Brazil",NA,-2.9,-41.7833333333333,"Alias"
"1138",35163,"Tutoia","3510","Brazil",NA,-2.78333333333333,-42.2833333333333,"Alias"
"1139",35163,"Tutoya","3510","Brazil",NA,NA,NA,"Alias"
"1140",35164,"Munguba","3510","Brazil",NA,NA,NA,"Official"
"1141",35165,"Macapa","3510","Brazil",NA,-0.04633,-51.18126,"Alias"
"1142",35165,"Port Santana","3510","Brazil",NA,-2.72,-57.26,"Alias"
"1143",35165,"Santana","3510","Brazil",NA,-2.72,-57.26,"Official"
"1144",35166,"Point Ubu","3510","Brazil",NA,NA,NA,"Official"
"1145",35166,"Ponta do Ubu","3510","Brazil",NA,NA,NA,"Alias"
"1146",35167,"Porto Alegre","3510","Brazil",NA,-30.03333,-51.23333,"Alias"
"1147",35167,"Santa Clara","3510","Brazil",NA,-30.03333,-51.23333,"Official"
"1148",35168,"Ponta da Madeira","3510","Brazil",NA,NA,NA,"Official"
"1149",35169,"Pernambuco","3510","Brazil",NA,-8.07744,-34.89581,"Alias"
"1150",35169,"Recife","3510","Brazil",NA,-8.07744,-34.89581,"Official"
"1151",35170,"Suape","3510","Brazil",NA,-8.39773,-34.95784,"Official"
"1152",35171,"Niteroi","3510","Brazil",NA,-22.89693,-43.20414,"Alias"
"1153",35171,"Rio de Janeiro","3510","Brazil",NA,-22.89693,-43.20414,"Official"
"1154",35173,"Rio Grande","3510","Brazil",NA,-32.05,-52.083333,"Official"
"1155",35175,"Sao Sebastio","3510","Brazil",NA,-23.80211,-45.39138,"Official"
"1156",35176,"Trombetas","3510","Brazil",NA,NA,NA,"Official"
"1157",35177,"Santos","3510","Brazil",NA,-23.95,-46.3,"Alias"
"1158",35177,"Sao Paulo","3510","Brazil",NA,NA,NA,"Official"
"1159",35178,"Imbituba","3510","Brazil",NA,-28.22673,-48.6484,"Official"
"1160",35179,"Sao Francisco do Sul","3510","Brazil",NA,-26.23844,-46.63825,"Official"
"1161",35180,"Port Itapoa","3510","Brazil",NA,NA,NA,"Official"
"1162",35181,"Salvador","3510","Brazil",NA,-12.94004,-38.49388,"Official"
"1163",35185,"Itaguai","3510","Brazil",NA,NA,NA,"Official"
"1164",35185,"Sepetiba Bay","3510","Brazil",NA,-22.92893,-43.82401,"Alias"
"1165",35195,"Victoria","3510","Brazil",NA,5.27459,115.25283,"Official"
"1166",35195,"Vitoria","3510","Brazil",NA,-20.3166666666667,-40.3333333333333,"Alias"
"1167",35198,"Abaetetuba","3510","Brazil",NA,NA,NA,"Alias"
"1168",35198,"Alenquer","3510","Brazil",NA,NA,NA,"Alias"
"1169",35198,"All Other Brazil Ports North of Recife","3510","Brazil",NA,NA,NA,"Official"
"1170",35198,"Amarracao","3510","Brazil",NA,NA,NA,"Alias"
"1171",35198,"Aracati","3510","Brazil",NA,-4.56666666666667,-37.7666666666667,"Alias"
"1172",35198,"Areia Branca","3510","Brazil",NA,NA,NA,"Alias"
"1173",35198,"Boa Vista","3510","Brazil",NA,NA,NA,"Alias"
"1174",35198,"Camocim","3510","Brazil",NA,-2.9,-40.8333333333333,"Alias"
"1175",35198,"Luis Correia","3510","Brazil",NA,-2.88333333333333,-41.6666666666667,"Alias"
"1176",35198,"Mossoro","3510","Brazil",NA,NA,NA,"Alias"
"1177",35198,"Oriximina","3510","Brazil",NA,NA,NA,"Alias"
"1178",35198,"Portel","3510","Brazil",NA,NA,NA,"Alias"
"1179",35198,"Santarem","3510","Brazil",NA,-2.41666666666667,-54.7166666666667,"Alias"
"1180",35198,"Sao Miguel dos Macaos","3510","Brazil",NA,NA,NA,"Alias"
"1181",35198,"Termisa Terminal","3510","Brazil",NA,NA,NA,"Alias"
"1182",35198,"Urucara","3510","Brazil",NA,NA,NA,"Alias"
"1183",35199,"All Other Brazil Ports South of Recife","3510","Brazil",NA,NA,NA,"Official"
"1184",35199,"Aracaju","3510","Brazil",NA,-10.9166666666667,-37.05,"Alias"
"1185",35199,"Barro do Riacho","3510","Brazil",NA,NA,NA,"Alias"
"1186",35199,"Pelotas","3510","Brazil",NA,-31.7833333333333,-52.3333333333333,"Alias"
"1187",35199,"Portocel","3510","Brazil",NA,NA,NA,"Alias"
"1188",35300,"All Other Paraguay Ports","3530","Paraguay",NA,-25.373,-57.646,"Official"
"1189",35300,"San Antonio","3530","Paraguay",NA,-25.438,-57.56,"Alias"
"1190",35301,"Asuncion","3530","Paraguay",NA,-25.285,-57.672,"Official"
"1191",35305,"Puerto Villeta","3530","Paraguay",NA,-25.662,-57.684,"Alias"
"1192",35305,"Villeta","3530","Paraguay",NA,-25.662,-57.684,"Official"
"1193",35500,"All Other Uruguay Ports","3550","Uruguay","Latitude/Longitude Update",-33.84,-58.437,"Official"
"1194",35515,"Colonia","3550","Uruguay","New Schedule K Code Added",-34.4765,-57.844,"Official"
"1195",35520,"Fray Bentos","3550","Uruguay","New Schedule K Code Added",-33.109,-58.315,"Official"
"1196",35522,"Jose Ignacio Terminal","3550","Uruguay","New Schedule K Code Added",-34.94,-54.7,"Official"
"1197",35525,"Montevideo","3550","Uruguay","Latitude/Longitude Update",-34.89,-56.22,"Official"
"1198",35530,"Paysandu","3550","Uruguay","New Schedule K Code Added",-32.307,-58.1,"Official"
"1199",35535,"Nueva Palmira","3550","Uruguay","Latitude/Longitude Update",-33.88,-58.43,"Official"
"1200",35537,"Punta del Este","3550","Uruguay","Latitude/Longitude Update",-34.96,-54.948,"Official"
"1201",35700,"Acevedo","3570","Argentina",NA,NA,NA,"Alias"
"1202",35700,"All Other Argentina Ports","3570","Argentina",NA,NA,NA,"Official"
"1203",35700,"Concepcion del Uruguay","3570","Argentina",NA,-32.4833333333333,-58.2333333333333,"Alias"
"1204",35700,"Diamante","3570","Argentina",NA,-32.0666666666667,-60.65,"Alias"
"1205",35700,"Ibicuy","3570","Argentina",NA,NA,NA,"Alias"
"1206",35700,"Puerto Quequen","3570","Argentina",NA,NA,NA,"Alias"
"1207",35700,"Punta Quilla","3570","Argentina",NA,NA,NA,"Alias"
"1208",35700,"Rio Gallegos","3570","Argentina",NA,-51.6166666666667,-69.2166666666667,"Alias"
"1209",35700,"San Antonio","3570","Argentina",NA,NA,NA,"Alias"
"1210",35700,"San Sebastian Bay","3570","Argentina",NA,NA,NA,"Alias"
"1211",35700,"Santa Cruz","3570","Argentina",NA,-50.0166666666667,-68.5166666666667,"Alias"
"1212",35700,"Ushuaia","3570","Argentina",NA,-54.8166666666667,-68.3,"Alias"
"1213",35701,"Bahia Blanca","3570","Argentina",NA,-38.76004,-62.34985,"Official"
"1214",35702,"Comodoro Rivadavia","3570","Argentina",NA,-45.8666666666667,-67.4666666666667,"Alias"
"1215",35702,"Rivadavia","3570","Argentina",NA,NA,NA,"Official"
"1216",35703,"Caleta Cordova","3570","Argentina",NA,NA,NA,"Official"
"1217",35703,"Caleta Olivares","3570","Argentina",NA,NA,NA,"Alias"
"1218",35703,"Caleta Olivia","3570","Argentina",NA,NA,NA,"Alias"
"1219",35705,"Buenos Aires","3570","Argentina",NA,-34.60263,-58.37477,"Official"
"1220",35710,"Bagual","3570","Argentina",NA,NA,NA,"Official"
"1221",35711,"Campana","3570","Argentina",NA,-34.15839,-58.96157,"Official"
"1222",35737,"La Plata","3570","Argentina",NA,-34.83312,-57.88833,"Official"
"1223",35739,"Mar del Plata","3570","Argentina",NA,-38.00026,-57.54755,"Official"
"1224",35740,"Madryn","3570","Argentina",NA,-42.77381,-65.0281,"Official"
"1225",35740,"Puerto Madryn","3570","Argentina",NA,-42.77381,-65.0281,"Alias"
"1226",35741,"Necochea","3570","Argentina",NA,-38.57753,-58.70377,"Official"
"1227",35745,"Puerto Deseado","3570","Argentina",NA,-47.74739,-65.89295,"Official"
"1228",35771,"Rosario","3570","Argentina",NA,-32.93964,-60.63957,"Official"
"1229",35779,"Pto. General San Martin","3570","Argentina",NA,-32.75467,-60.72285,"Alias"
"1230",35779,"Puerto Borghio","3570","Argentina",NA,-32.75467,-60.72285,"Alias"
"1231",35779,"Puerto San Lorenzo","3570","Argentina",NA,-32.75467,-60.72285,"Alias"
"1232",35779,"San Lorenzo","3570","Argentina",NA,-32.75467,-60.72285,"Official"
"1233",35781,"San Nicolas","3570","Argentina",NA,-33.32087,-60.2264,"Official"
"1234",35785,"San Pedro","3570","Argentina",NA,-33.67234,-59.66447,"Official"
"1235",35791,"Santa Fe","3570","Argentina",NA,-31.61449,-60.66791,"Official"
"1236",35795,"Villa Constitucion","3570","Argentina",NA,-33.23456,-60.3155,"Official"
"1237",35796,"Zarate","3570","Argentina",NA,-34.08148,-59.03484,"Official"
"1238",37200,"All Falkland Islands Ports","3720","Falk Is",NA,-56.53,-46.45,"Official"
"1239",37200,"South Georgia","3720","Falk Is",NA,-54.29,-36.48,"Alias"
"1240",37200,"South Orkneys","3720","Falk Is",NA,-60.738,-44.732,"Alias"
"1241",37200,"South Sandwich Islands","3720","Falk Is",NA,-58.05,-26.4,"Alias"
"1242",37200,"South Shetlands","3720","Falk Is",NA,-62.34,-59.28,"Alias"
"1243",37205,"Port Stanley, E Falklnd","3720","Falk Is",NA,-51.6905,-57.8565,"Official"
"1244",40000,"All Other Iceland Ports","4000","Iceland",NA,NA,NA,"Official"
"1245",40000,"Djupivogur","4000","Iceland",NA,64.6666666666667,-14.2833333333333,"Alias"
"1246",40000,"Eskifjordhur","4000","Iceland",NA,NA,NA,"Alias"
"1247",40000,"Eskifjordur","4000","Iceland",NA,65.0666666666667,-14.0166666666667,"Alias"
"1248",40000,"Isafjordhur","4000","Iceland",NA,NA,NA,"Alias"
"1249",40000,"Isafjordur","4000","Iceland",NA,66.0666666666667,-23.1166666666667,"Alias"
"1250",40000,"Keflavik","4000","Iceland",NA,64,-22.55,"Alias"
"1251",40000,"Raufarhofn","4000","Iceland",NA,66.45,-15.9333333333333,"Alias"
"1252",40000,"Seydhisfjordhur","4000","Iceland",NA,65.2666666666667,-14,"Alias"
"1253",40000,"Seydisfjordur","4000","Iceland",NA,NA,NA,"Alias"
"1254",40000,"Siglufjordhur","4000","Iceland",NA,NA,NA,"Alias"
"1255",40000,"Siglufjordur","4000","Iceland",NA,NA,NA,"Alias"
"1256",40000,"Thorlakshofn","4000","Iceland",NA,NA,NA,"Alias"
"1257",40001,"Hafnarfjordhur","4000","Iceland",NA,64.06667,-21.95,"Official"
"1258",40001,"Hafnarfjordur","4000","Iceland",NA,64.06667,-21.95,"Alias"
"1259",40002,"Grundarfjordur","4000","Iceland",NA,NA,NA,"Official"
"1260",40002,"Grundartangi","4000","Iceland",NA,NA,NA,"Alias"
"1261",40010,"Njardvik","4000","Iceland",NA,NA,NA,"Official"
"1262",40036,"Neskaupstadur","4000","Iceland",NA,65.144,-13.66563,"Official"
"1263",40037,"Reykjavik","4000","Iceland",NA,64.14938,-21.9292,"Official"
"1264",40038,"Akranes","4000","Iceland",NA,64.32854,-22.07916,"Official"
"1265",40039,"Akureyri","4000","Iceland",NA,65.67794,-18.052,"Official"
"1266",40040,"Vestmannaeyjar","4000","Iceland",NA,NA,NA,"Official"
"1267",40040,"Westman Isles","4000","Iceland",NA,NA,NA,"Alias"
"1268",40100,"All Other Sweden Ports","4010","Sweden",NA,58.42,18.46,"Official"
"1269",40100,"Arnoviken","4010","Sweden",NA,61.724,17.398,"Alias"
"1270",40100,"Bollsta","4010","Sweden",NA,62.985,17.705,"Alias"
"1271",40100,"Furuogrund","4010","Sweden",NA,64.911,21.242,"Alias"
"1272",40100,"Mem","4010","Sweden",NA,58.48,16.417,"Alias"
"1273",40100,"Sandhamn","4010","Sweden",NA,59.2898,18.9167,"Alias"
"1274",40100,"Vinga","4010","Sweden",NA,57.6186,11.763,"Alias"
"1275",40102,"Brofjorden","4010","Sweden",NA,58.355,11.418,"Official"
"1276",40103,"Burea","4010","Sweden",NA,64.6153,21.23,"Official"
"1277",40104,"Domsjo","4010","Sweden",NA,63.276,18.728,"Official"
"1278",40105,"Dynas","4010","Sweden",NA,62.987,17.703,"Official"
"1279",40106,"Essvik","4010","Sweden",NA,62.3198,17.389,"Official"
"1280",40106,"Essviken","4010","Sweden",NA,62.3198,17.389,"Alias"
"1281",40107,"Fagervik","4010","Sweden",NA,62.498,17.41,"Official"
"1282",40108,"Frano","4010","Sweden",NA,62.914,17.85,"Official"
"1283",40109,"Hargshamn","4010","Sweden",NA,60.173,18.48,"Official"
"1284",40110,"Harnosand","4010","Sweden",NA,62.64,17.942,"Official"
"1285",40110,"Hernosand","4010","Sweden",NA,62.64,17.942,"Alias"
"1286",40111,"Hornesfors","4010","Sweden",NA,63.6,19.91,"Official"
"1287",40112,"Hudiksvall","4010","Sweden",NA,61.718,17.12,"Official"
"1288",40114,"Kalix","4010","Sweden",NA,65.793,23.25,"Official"
"1289",40116,"Gafle","4010","Sweden",NA,60.6835,17.202,"Alias"
"1290",40116,"Gavle","4010","Sweden",NA,60.6835,17.202,"Official"
"1291",40116,"Gefle","4010","Sweden",NA,60.6835,17.202,"Alias"
"1292",40117,"Goteborg","4010","Sweden",NA,57.721,11.9854,"Official"
"1293",40117,"Gothenburg","4010","Sweden",NA,57.721,11.9854,"Alias"
"1294",40118,"Hallstavik","4010","Sweden",NA,60.063,18.589,"Official"
"1295",40119,"Halmstad","4010","Sweden",NA,56.653,12.849,"Official"
"1296",40120,"Helsingborg","4010","Sweden",NA,56.025,12.685,"Official"
"1297",40121,"Falkenberg","4010","Sweden",NA,56.8878,12.475,"Official"
"1298",40122,"Ahus","4010","Sweden",NA,55.9273,14.3185,"Official"
"1299",40123,"Hoganas","4010","Sweden",NA,56.198,12.544,"Official"
"1300",40124,"Ronnskar","4010","Sweden","Change",64.6805,21.2608,"Alias"
"1301",40124,"Skelleftea","4010","Sweden",NA,64.7475,20.953,"Official"
"1302",40124,"Skelleftehamn","4010","Sweden",NA,64.68,21.26,"Alias"
"1303",40125,"Umea","4010","Sweden",NA,63.8226,20.262,"Official"
"1304",40127,"Holmsund","4010","Sweden",NA,63.67,20.337,"Official"
"1305",40129,"Iggesund","4010","Sweden",NA,61.6354,17.1,"Official"
"1306",40130,"Kalmar","4010","Sweden",NA,56.664,16.38,"Official"
"1307",40131,"Carlskrona","4010","Sweden",NA,56.16,15.62,"Alias"
"1308",40131,"Karlskrona","4010","Sweden",NA,56.16,15.62,"Official"
"1309",40132,"Karlsborg","4010","Sweden",NA,65.794,23.275,"Official"
"1310",40132,"Karlsborghas Axelvik","4010","Sweden",NA,58.536,14.515,"Alias"
"1311",40133,"Karlshamn","4010","Sweden",NA,56.161,14.862,"Official"
"1312",40134,"Karlstad","4010","Sweden",NA,59.363,13.526,"Official"
"1313",40135,"Karskar","4010","Sweden",NA,60.688,17.274,"Official"
"1314",40136,"Kopmanholmen","4010","Sweden",NA,63.172,18.593,"Official"
"1315",40137,"Kramfors","4010","Sweden",NA,62.94,17.7785,"Official"
"1316",40138,"Kristinehamn","4010","Sweden",NA,59.318,14.083,"Official"
"1317",40139,"Ljusne","4010","Sweden",NA,61.21,17.17,"Official"
"1318",40140,"Lysekil","4010","Sweden",NA,58.27,11.45,"Official"
"1319",40141,"Munksund","4010","Sweden",NA,65.27,21.494,"Official"
"1320",40142,"Lulea","4010","Sweden",NA,65.56,22.18,"Official"
"1321",40143,"Limhamn","4010","Sweden",NA,55.592,12.917,"Official"
"1322",40143,"Malmo","4010","Sweden",NA,55.636,12.986,"Alias"
"1323",40144,"Norrbyskar","4010","Sweden",NA,63.55,19.87,"Official"
"1324",40145,"Nynashamn","4010","Sweden",NA,58.907,17.963,"Official"
"1325",40146,"Ortviken","4010","Sweden",NA,62.395,17.355,"Official"
"1326",40147,"Orviken","4010","Sweden",NA,64.667,21.295,"Official"
"1327",40148,"Norrkoping","4010","Sweden",NA,58.6044,16.222,"Official"
"1328",40149,"Norrsundet","4010","Sweden",NA,60.9365,17.151,"Official"
"1329",40150,"Lanskrona","4010","Sweden",NA,55.857,12.828,"Official"
"1330",40151,"Ostrand","4010","Sweden",NA,62.482,17.354,"Official"
"1331",40152,"Otterbacken","4010","Sweden",NA,58.945,14.03,"Official"
"1332",40153,"Obbola","4010","Sweden",NA,63.701,20.33,"Official"
"1333",40154,"Pitea","4010","Sweden",NA,65.305,21.455,"Official"
"1334",40155,"Ornskoldsvik","4010","Sweden",NA,63.272,18.73,"Official"
"1335",40156,"Ronneby","4010","Sweden",NA,56.2095,15.27716,"Official"
"1336",40157,"Oskarshamn","4010","Sweden",NA,57.2635,16.48,"Official"
"1337",40159,"Oxelosund","4010","Sweden",NA,58.66,17.113,"Official"
"1338",40166,"Sandarne","4010","Sweden",NA,61.264,17.17,"Official"
"1339",40167,"Sikea","4010","Sweden",NA,64.157,20.978,"Official"
"1340",40168,"Skogholl","4010","Sweden","New Schedule K Code Added",59.314,13.46,"Official"
"1341",40169,"Skonvik","4010","Sweden",NA,62.412,17.398,"Official"
"1342",40170,"Skutskar","4010","Sweden",NA,60.65,17.392,"Official"
"1343",40171,"Slite","4010","Sweden",NA,57.7,18.805,"Official"
"1344",40172,"Soraker","4010","Sweden",NA,62.5,17.49,"Official"
"1345",40173,"Stocka","4010","Sweden",NA,61.8963,17.345,"Official"
"1346",40174,"Soderhamn","4010","Sweden",NA,61.303,17.12,"Official"
"1347",40176,"Stenungsund","4010","Sweden",NA,58.083,11.796,"Official"
"1348",40179,"Stockholm","4010","Sweden",NA,59.324,18.053,"Official"
"1349",40180,"Stockvik","4010","Sweden",NA,62.334,17.3715,"Alias"
"1350",40180,"Stockviksverken","4010","Sweden",NA,62.334,17.3715,"Official"
"1351",40182,"Sundsvall","4010","Sweden",NA,62.387,17.36,"Official"
"1352",40183,"Svartvik","4010","Sweden",NA,62.4707,17.326,"Official"
"1353",40184,"Trollhattan","4010","Sweden",NA,58.267,12.268,"Official"
"1354",40184,"Trollhatte Canal","4010","Sweden",NA,58.267,12.268,"Alias"
"1355",40185,"Trelleborg","4010","Sweden",NA,13.152,13.152,"Official"
"1356",40188,"Uddevalla","4010","Sweden",NA,58.342,11.9,"Official"
"1357",40189,"Ulfvik","4010","Sweden",NA,62.673,17.857,"Official"
"1358",40189,"Ulvvik","4010","Sweden",NA,62.673,17.857,"Alias"
"1359",40190,"Ursviken","4010","Sweden",NA,64.7,21.17,"Official"
"1360",40191,"Utansjo","4010","Sweden",NA,62.773,17.94,"Official"
"1361",40192,"Vasteras","4010","Sweden",NA,59.597,16.553,"Official"
"1362",40193,"Vaja","4010","Sweden",NA,62.986,17.706,"Official"
"1363",40194,"Vastervik","4010","Sweden",NA,57.75933,16.65387,"Official"
"1364",40195,"Varberg","4010","Sweden",NA,57.112,12.237,"Official"
"1365",40196,"Vallvik","4010","Sweden",NA,61.1905,17.177,"Official"
"1366",40197,"Wallhamn","4010","Sweden",NA,58.009,11.7,"Official"
"1367",40198,"Vifstavarf","4010","Sweden",NA,62.479,17.342,"Alias"
